[{"areaName":"Buffalo Rock on French Broad River","children":[],"climbs":[{"grades":{"font":"5\u002B","french":null,"vscale":"V2-","yds":"V2-"},"id":"0580fc4b-25aa-5d12-91e8-0e02c0aec19f","metadata":{"lat":35.93945,"lng":-82.93149},"name":"Trick or Trash","safety":"UNSPECIFIED","type":{"aid":false,"alpine":false,"bouldering":true,"ice":false,"mixed":false,"snow":false,"sport":false,"tr":false,"trad":false}},{"grades":{"font":"5","french":null,"vscale":"V1","yds":"V1"},"id":"ef041ac1-15d1-57a3-8f8b-4e5f2b5524d0","metadata":{"lat":35.93945,"lng":-82.93149},"name":"The Bend","safety":"UNSPECIFIED","type":{"aid":false,"alpine":false,"bouldering":true,"ice":false,"mixed":false,"snow":false,"sport":false,"tr":false,"trad":false}}],"id":"6467aacce622317bdb3e0e92","metadata":{"lat":35.93945,"lng":-82.93149,"areaId":"3aa01537-f40b-52e9-aef1-fe259024201a"}},{"areaName":"Bells Bend","children":[],"climbs":[{"grades":{"font":"5\u002B","french":null,"vscale":"V2","yds":"V2"},"id":"86a99fce-601c-5b98-9430-47a59f53d2cd","metadata":{"lat":36.15453,"lng":-86.92197},"name":"Dollywood","safety":"UNSPECIFIED","type":{"aid":false,"alpine":false,"bouldering":true,"ice":false,"mixed":false,"snow":false,"sport":false,"tr":false,"trad":false}},{"grades":{"font":"5","french":null,"vscale":"V1-2","yds":"V1-2"},"id":"87f04945-be69-557f-92c8-3b1d5983ea56","metadata":{"lat":36.15453,"lng":-86.92197},"name":"Northeast Arete","safety":"UNSPECIFIED","type":{"aid":false,"alpine":false,"bouldering":true,"ice":false,"mixed":false,"snow":false,"sport":false,"tr":false,"trad":false}},{"grades":{"font":"6C","french":null,"vscale":"V5","yds":"V5"},"id":"a6239105-d32f-5289-8a95-56009e599f41","metadata":{"lat":36.15453,"lng":-86.92197},"name":"No Mike Direct","safety":"UNSPECIFIED","type":{"aid":false,"alpine":false,"bouldering":true,"ice":false,"mixed":false,"snow":false,"sport":false,"tr":false,"trad":false}},{"grades":{"font":"6A","french":null,"vscale":"V3","yds":"V3"},"id":"d4073d45-ca29-5097-a004-f3b02e73919e","metadata":{"lat":36.15453,"lng":-86.92197},"name":"East Nasty","safety":"UNSPECIFIED","type":{"aid":false,"alpine":false,"bouldering":true,"ice":false,"mixed":false,"snow":false,"sport":false,"tr":false,"trad":false}}],"id":"6467aacce622317bdb3e0e93","metadata":{"lat":36.15453,"lng":-86.92197,"areaId":"6ddb03cd-57e4-5aaa-ac14-b2eb30850b4d"}},{"areaName":"Bee Rock","children":[],"climbs":[{"grades":{"font":null,"french":"7c\u002B","vscale":null,"yds":"5.13a"},"id":"088c4c41-83d8-5688-9253-162d14303540","metadata":{"lat":36.12879,"lng":-85.28619},"name":"Tuff Enuff","safety":"UNSPECIFIED","type":{"aid":false,"alpine":false,"bouldering":false,"ice":false,"mixed":false,"snow":false,"sport":true,"tr":false,"trad":false}},{"grades":{"font":null,"french":"6b","vscale":null,"yds":"5.10c"},"id":"47f9222d-b6a7-53d8-a600-497fa598b51c","metadata":{"lat":36.12879,"lng":-85.28619},"name":"Judy\u0027s World","safety":"UNSPECIFIED","type":{"aid":false,"alpine":false,"bouldering":false,"ice":false,"mixed":false,"snow":false,"sport":false,"tr":true,"trad":true}},{"grades":{"font":null,"french":"6a\u002B","vscale":null,"yds":"5.10b"},"id":"594e331d-fbec-5fa5-af9c-788f516edc06","metadata":{"lat":36.12879,"lng":-85.28619},"name":"Water Route","safety":"UNSPECIFIED","type":{"aid":false,"alpine":false,"bouldering":false,"ice":false,"mixed":false,"snow":false,"sport":true,"tr":false,"trad":false}},{"grades":{"font":null,"french":"5c","vscale":null,"yds":"5.9"},"id":"87df2bd9-e8ad-5ddf-ba1c-e42dbb927012","metadata":{"lat":36.12879,"lng":-85.28619},"name":"Synchronicity","safety":"UNSPECIFIED","type":{"aid":false,"alpine":false,"bouldering":false,"ice":false,"mixed":false,"snow":false,"sport":false,"tr":true,"trad":false}},{"grades":{"font":null,"french":"6a\u002B","vscale":null,"yds":"5.10b"},"id":"8855894c-4c93-5a96-a84e-a330c62e9aa0","metadata":{"lat":36.12879,"lng":-85.28619},"name":"Summit Attempt","safety":"UNSPECIFIED","type":{"aid":false,"alpine":false,"bouldering":false,"ice":false,"mixed":false,"snow":false,"sport":true,"tr":true,"trad":false}},{"grades":{"font":null,"french":"6c","vscale":null,"yds":"5.11a"},"id":"a98acd57-c0f3-5ce5-9e40-8b0b22f99843","metadata":{"lat":36.12879,"lng":-85.28619},"name":"Living Crossfire","safety":"UNSPECIFIED","type":{"aid":false,"alpine":false,"bouldering":false,"ice":false,"mixed":false,"snow":false,"sport":true,"tr":false,"trad":false}},{"grades":{"font":null,"french":"6c","vscale":null,"yds":"5.11b"},"id":"aa1ffe80-8eba-51ca-a2cc-b6d769dbcf04","metadata":{"lat":36.12879,"lng":-85.28619},"name":"Two Cam Sam","safety":"UNSPECIFIED","type":{"aid":false,"alpine":false,"bouldering":false,"ice":false,"mixed":false,"snow":false,"sport":true,"tr":false,"trad":false}},{"grades":{"font":null,"french":"6c","vscale":null,"yds":"5.11b"},"id":"ba9ea0ab-6ff7-504c-aec0-33fcfb8eb88e","metadata":{"lat":36.12879,"lng":-85.28619},"name":"Sail Rabbits","safety":"UNSPECIFIED","type":{"aid":false,"alpine":false,"bouldering":false,"ice":false,"mixed":false,"snow":false,"sport":true,"tr":false,"trad":false}},{"grades":{"font":null,"french":"5c","vscale":null,"yds":"5.9"},"id":"c2e3bb06-be8c-5e14-94f4-9d68df29f499","metadata":{"lat":36.12879,"lng":-85.28619},"name":"Belching Bitch","safety":"UNSPECIFIED","type":{"aid":false,"alpine":false,"bouldering":false,"ice":false,"mixed":false,"snow":false,"sport":false,"tr":true,"trad":true}},{"grades":{"font":null,"french":"4c","vscale":null,"yds":"5.6"},"id":"c36eec4d-5581-5adc-87fc-bd0462edd0c4","metadata":{"lat":36.12879,"lng":-85.28619},"name":"Three Teeth","safety":"UNSPECIFIED","type":{"aid":false,"alpine":false,"bouldering":false,"ice":false,"mixed":false,"snow":false,"sport":false,"tr":true,"trad":true}},{"grades":{"font":null,"french":"4c","vscale":null,"yds":"5.6"},"id":"f0bc34f2-9788-5fd9-a96c-6741dc9d2c52","metadata":{"lat":36.12879,"lng":-85.28619},"name":"Approach Slabs","safety":"UNSPECIFIED","type":{"aid":false,"alpine":false,"bouldering":false,"ice":false,"mixed":false,"snow":false,"sport":true,"tr":false,"trad":false}}],"id":"6467aacce622317bdb3e0e94","metadata":{"lat":36.12879,"lng":-85.28619,"areaId":"74350768-f1c2-5aaf-aa86-9c819808d220"}},{"areaName":"Cherokee Bluff (CLOSED TO CLIMBING)","children":[],"climbs":[{"grades":{"font":null,"french":"5a","vscale":null,"yds":"5.7"},"id":"33852625-7e9f-51a9-a9b9-1108525e68d8","metadata":{"lat":35.9247,"lng":-83.9618},"name":"Die Capitalist Dog","safety":"UNSPECIFIED","type":{"aid":false,"alpine":false,"bouldering":false,"ice":false,"mixed":false,"snow":false,"sport":true,"tr":false,"trad":true}},{"grades":{"font":null,"french":"5c","vscale":null,"yds":"5.9"},"id":"a3b1c7be-649c-52e9-bdef-5d672880a15e","metadata":{"lat":35.9247,"lng":-83.9618},"name":"All Chalked Up and Nowhere To Go","safety":"PG","type":{"aid":false,"alpine":false,"bouldering":false,"ice":false,"mixed":false,"snow":false,"sport":true,"tr":false,"trad":false}}],"id":"6467aacce622317bdb3e0e95","metadata":{"lat":35.9247,"lng":-83.9618,"areaId":"1dc548a6-c19b-5bd4-84a5-d2dd179e52f0"}},{"areaName":"Backbone Rock","children":[{"areaName":"Parking lot side of street","children":[],"climbs":[{"grades":{"font":null,"french":"4b","vscale":null,"yds":"5.5"},"id":"15fce244-1341-5596-a5c6-93cec840a191","metadata":{"lat":36.594,"lng":-81.8151},"name":"Corner under the bridge","safety":"UNSPECIFIED","type":{"aid":false,"alpine":false,"bouldering":false,"ice":false,"mixed":false,"snow":false,"sport":false,"tr":true,"trad":false}},{"grades":{"font":null,"french":"4c","vscale":null,"yds":"5.6"},"id":"4acdb31e-ebae-5bbf-94f1-b24a159f469c","metadata":{"lat":36.594,"lng":-81.8151},"name":"Easier of the face climbs","safety":"UNSPECIFIED","type":{"aid":false,"alpine":false,"bouldering":false,"ice":false,"mixed":false,"snow":false,"sport":false,"tr":true,"trad":false}},{"grades":{"font":null,"french":"5b","vscale":null,"yds":"5.8-"},"id":"62fd4b45-66d7-5ee7-9817-dad814714203","metadata":{"lat":36.594,"lng":-81.8151},"name":"Harder of the face climbs","safety":"UNSPECIFIED","type":{"aid":false,"alpine":false,"bouldering":false,"ice":false,"mixed":false,"snow":false,"sport":false,"tr":true,"trad":false}},{"grades":{"font":null,"french":"5a","vscale":null,"yds":"5.7\u002B"},"id":"8afeb67b-e5eb-50a1-8154-bd612d760ab0","metadata":{"lat":36.594,"lng":-81.8151},"name":"Decent crack","safety":"UNSPECIFIED","type":{"aid":false,"alpine":false,"bouldering":false,"ice":false,"mixed":false,"snow":false,"sport":false,"tr":true,"trad":false}}],"id":"6467aacce622317bdb3e0e97","metadata":{"lat":36.594,"lng":-81.8151,"areaId":"1bb8d3b8-3091-5b3b-85f8-c6535165964e"}},{"areaName":"Main Wall","children":[],"climbs":[{"grades":{"font":null,"french":"5a","vscale":null,"yds":"5.7"},"id":"9c299cf1-d120-5d5a-adbc-5f0e3ff45779","metadata":{"lat":36.594,"lng":-81.8151},"name":"What Would Chouinard Do?","safety":"UNSPECIFIED","type":{"aid":false,"alpine":false,"bouldering":false,"ice":false,"mixed":false,"snow":false,"sport":false,"tr":false,"trad":true}},{"grades":{"font":null,"french":"5c","vscale":null,"yds":"5.9"},"id":"b82feaae-b188-5007-8923-7da474ecc5f0","metadata":{"lat":36.594,"lng":-81.8151},"name":"El Breezy","safety":"UNSPECIFIED","type":{"aid":false,"alpine":false,"bouldering":false,"ice":false,"mixed":false,"snow":false,"sport":true,"tr":false,"trad":false}},{"grades":{"font":null,"french":"4b","vscale":null,"yds":"5.5"},"id":"dbc7663d-1545-5940-887c-159f9c21e714","metadata":{"lat":36.594,"lng":-81.8151},"name":"Paradise","safety":"UNSPECIFIED","type":{"aid":false,"alpine":false,"bouldering":false,"ice":false,"mixed":false,"snow":false,"sport":true,"tr":false,"trad":false}}],"id":"6467aacce622317bdb3e0e98","metadata":{"lat":36.594,"lng":-81.8151,"areaId":"aa1263d4-03ca-5e76-94d4-51164af381c7"}},{"areaName":"Across the Street","children":[],"climbs":[{"grades":{"font":null,"french":"4c","vscale":null,"yds":"5.6"},"id":"0fe5e28c-0d36-5c21-bfab-a8316faaba98","metadata":{"lat":36.594,"lng":-81.8151},"name":"The Girlfriend Route","safety":"UNSPECIFIED","type":{"aid":false,"alpine":false,"bouldering":false,"ice":false,"mixed":false,"snow":false,"sport":false,"tr":true,"trad":true}},{"grades":{"font":null,"french":"6a","vscale":null,"yds":"5.10a"},"id":"870861d3-7c53-51d0-82dd-2ecd62ad5397","metadata":{"lat":36.594,"lng":-81.8151},"name":"Cave","safety":"UNSPECIFIED","type":{"aid":false,"alpine":false,"bouldering":false,"ice":false,"mixed":false,"snow":false,"sport":false,"tr":true,"trad":false}},{"grades":{"font":null,"french":"5b","vscale":null,"yds":"5.8\u002B"},"id":"a6555870-b083-5863-b60a-321581005f9b","metadata":{"lat":36.594,"lng":-81.8151},"name":"19 Crimes","safety":"UNSPECIFIED","type":{"aid":false,"alpine":false,"bouldering":false,"ice":false,"mixed":false,"snow":false,"sport":false,"tr":true,"trad":true}}],"id":"6467aacce622317bdb3e0f24","metadata":{"lat":36.594,"lng":-81.8151,"areaId":"ba95a238-d999-5b6a-810e-0ffd252db67d"}},{"areaName":"Backbone Boulders","children":[{"areaName":"Death Tree Boulder","children":[],"climbs":[{"grades":{"font":"5\u002B","french":null,"vscale":"V2\u002B","yds":"V2\u002B"},"id":"0f8db5f6-561a-5761-9012-e8042de268bd","metadata":{"lat":36.594,"lng":-81.8151},"name":"Parasite","safety":"UNSPECIFIED","type":{"aid":false,"alpine":false,"bouldering":true,"ice":false,"mixed":false,"snow":false,"sport":false,"tr":false,"trad":false}},{"grades":{"font":"5\u002B","french":null,"vscale":"V2-3","yds":"V2-3"},"id":"3f535323-1f46-5ad2-a78f-c30f10171c1c","metadata":{"lat":36.594,"lng":-81.8151},"name":"Death Tree Traverse","safety":"UNSPECIFIED","type":{"aid":false,"alpine":false,"bouldering":true,"ice":false,"mixed":false,"snow":false,"sport":false,"tr":false,"trad":false}},{"grades":{"font":"5","french":null,"vscale":"V1","yds":"V1"},"id":"687fa68b-dc56-5f88-8898-ff682855cce3","metadata":{"lat":36.594,"lng":-81.8151},"name":"Squatch","safety":"UNSPECIFIED","type":{"aid":false,"alpine":false,"bouldering":true,"ice":false,"mixed":false,"snow":false,"sport":false,"tr":false,"trad":false}},{"grades":{"font":"5\u002B","french":null,"vscale":"V2-3","yds":"V2-3"},"id":"e0f69844-945f-5f3f-99de-b6cd81c54c3a","metadata":{"lat":36.594,"lng":-81.8151},"name":"Contra","safety":"UNSPECIFIED","type":{"aid":false,"alpine":false,"bouldering":true,"ice":false,"mixed":false,"snow":false,"sport":false,"tr":false,"trad":false}}],"id":"6467aacce622317bdb3e0f2d","metadata":{"lat":36.594,"lng":-81.8151,"areaId":"1220b7d8-54f4-5f3a-99b6-9eba24f9b597"}},{"areaName":"Backbone Roof","children":[],"climbs":[{"grades":{"font":"6A","french":null,"vscale":"V3","yds":"V3"},"id":"a66d87e8-1fb7-5574-ba11-4069ce4bddbe","metadata":{"lat":36.59397,"lng":-81.81491},"name":"Cubism Dream","safety":"UNSPECIFIED","type":{"aid":false,"alpine":false,"bouldering":true,"ice":false,"mixed":false,"snow":false,"sport":false,"tr":false,"trad":false}}],"id":"6467aacce622317bdb3e0f2e","metadata":{"lat":36.59397,"lng":-81.81491,"areaId":"d77b6dd4-b710-5a56-9e32-31b9bb7410ef"}}],"climbs":[],"id":"6467aacce622317bdb3e0f2c","metadata":{"lat":36.593985,"lng":-81.815005,"areaId":"b4c1cfb5-a89c-5fed-82a1-9cb2ad33f114"}}],"climbs":[],"id":"6467aacce622317bdb3e0e96","metadata":{"lat":36.593996250000004,"lng":-81.81507625,"areaId":"e026979e-5965-564d-94cc-2c02fe56b46f"}},{"areaName":"Boulders on Old Wauhatchie Pike, The","children":[{"areaName":"Wauhatchie","children":[],"climbs":[],"id":"6467aacce622317bdb3e0e9a","metadata":{"lat":35.01611,"lng":-85.33501,"areaId":"22628e8b-6752-5127-963e-154980b27a66"}},{"areaName":"Twins, The","children":[],"climbs":[{"grades":{"font":"6B\u002B","french":null,"vscale":"V4\u002B","yds":"V4\u002B"},"id":"6ce31e8c-cc5c-5226-989d-fd0e73a9157d","metadata":{"lat":35.01412,"lng":-85.33325},"name":"Lay It Down","safety":"UNSPECIFIED","type":{"aid":false,"alpine":false,"bouldering":true,"ice":false,"mixed":false,"snow":false,"sport":false,"tr":false,"trad":false}},{"grades":{"font":"6C","french":null,"vscale":"V5","yds":"V5"},"id":"d23ca7c3-2644-54b2-b673-9e5c1cea02a0","metadata":{"lat":35.01412,"lng":-85.33325},"name":"Slotky\u0027s Deli","safety":"UNSPECIFIED","type":{"aid":false,"alpine":false,"bouldering":true,"ice":false,"mixed":false,"snow":false,"sport":false,"tr":false,"trad":false}}],"id":"6467aacce622317bdb3e0ef8","metadata":{"lat":35.01412,"lng":-85.33325,"areaId":"fa01d46d-2f59-51bc-8c55-6e12ec979a4a"}},{"areaName":"Turtle, The","children":[],"climbs":[{"grades":{"font":"7A\u002B","french":null,"vscale":"V7","yds":"V7"},"id":"583ec46d-b5f4-59c4-857f-8e80ebb938c7","metadata":{"lat":35.01557,"lng":-85.33121},"name":"Turtle Fur","safety":"UNSPECIFIED","type":{"aid":false,"alpine":false,"bouldering":true,"ice":false,"mixed":false,"snow":false,"sport":false,"tr":false,"trad":false}},{"grades":{"font":"4","french":null,"vscale":"V0","yds":"V0"},"id":"897aa406-f839-5491-9eec-8973b7e79f94","metadata":{"lat":35.01557,"lng":-85.33121},"name":"Ride the Rail","safety":"UNSPECIFIED","type":{"aid":false,"alpine":false,"bouldering":true,"ice":false,"mixed":false,"snow":false,"sport":false,"tr":false,"trad":false}},{"grades":{"font":"5","french":null,"vscale":"V1","yds":"V1"},"id":"a025374d-eace-57de-bd78-d628d733297b","metadata":{"lat":35.01557,"lng":-85.33121},"name":"Turtle Man","safety":"UNSPECIFIED","type":{"aid":false,"alpine":false,"bouldering":true,"ice":false,"mixed":false,"snow":false,"sport":false,"tr":false,"trad":false}},{"grades":{"font":"5","french":null,"vscale":"V1-2","yds":"V1-2"},"id":"e4ed5a22-a099-5e9a-b1b6-c3628197acd2","metadata":{"lat":35.01557,"lng":-85.33121},"name":"Pebble Beach","safety":"UNSPECIFIED","type":{"aid":false,"alpine":false,"bouldering":true,"ice":false,"mixed":false,"snow":false,"sport":false,"tr":false,"trad":false}}],"id":"6467aacce622317bdb3e0ef9","metadata":{"lat":35.01557,"lng":-85.33121,"areaId":"c602eaad-6c56-5743-9cfc-21a40bb6248a"}},{"areaName":"Slide, The","children":[],"climbs":[{"grades":{"font":"5\u002B","french":null,"vscale":"V2-","yds":"V2-"},"id":"0e43eb4d-23f2-5cd8-bf7b-b2d7f7c797d8","metadata":{"lat":35.01556,"lng":-85.33121},"name":"The Hole","safety":"UNSPECIFIED","type":{"aid":false,"alpine":false,"bouldering":true,"ice":false,"mixed":false,"snow":false,"sport":false,"tr":false,"trad":false}},{"grades":{"font":"7B","french":null,"vscale":"V8","yds":"V8"},"id":"1060be7b-405a-5eac-b22c-5d3aee957fea","metadata":{"lat":35.01556,"lng":-85.33121},"name":"Before The Rain","safety":"UNSPECIFIED","type":{"aid":false,"alpine":false,"bouldering":true,"ice":false,"mixed":false,"snow":false,"sport":false,"tr":false,"trad":false}},{"grades":{"font":"6C\u002B","french":null,"vscale":"V5-6","yds":"V5-6"},"id":"8a371d16-5929-5056-9263-cd66042b81cd","metadata":{"lat":35.01556,"lng":-85.33121},"name":"The Slide Traverse","safety":"UNSPECIFIED","type":{"aid":false,"alpine":false,"bouldering":true,"ice":false,"mixed":false,"snow":false,"sport":false,"tr":false,"trad":false}},{"grades":{"font":"4\u002B","french":null,"vscale":"V0-1","yds":"V0-1"},"id":"9c37240a-9bdc-5f24-b346-6c5d806744d2","metadata":{"lat":35.01556,"lng":-85.33121},"name":"English Ivy","safety":"UNSPECIFIED","type":{"aid":false,"alpine":false,"bouldering":true,"ice":false,"mixed":false,"snow":false,"sport":false,"tr":false,"trad":false}},{"grades":{"font":"6A","french":null,"vscale":"V3","yds":"V3"},"id":"a87cf4e3-3301-5c6c-803e-8fa514a99edd","metadata":{"lat":35.01556,"lng":-85.33121},"name":"Barishnikov Dyno","safety":"UNSPECIFIED","type":{"aid":false,"alpine":false,"bouldering":true,"ice":false,"mixed":false,"snow":false,"sport":false,"tr":false,"trad":false}},{"grades":{"font":"5\u002B","french":null,"vscale":"V2-3","yds":"V2-3"},"id":"b4e2d7b8-b4f7-55dd-a12e-5d321f5fc295","metadata":{"lat":35.01556,"lng":-85.33121},"name":"The Groove","safety":"UNSPECIFIED","type":{"aid":false,"alpine":false,"bouldering":true,"ice":false,"mixed":false,"snow":false,"sport":false,"tr":false,"trad":false}},{"grades":{"font":"6B","french":null,"vscale":"V4","yds":"V4"},"id":"e10efbaf-cd60-5cc0-817d-e774ca65409a","metadata":{"lat":35.01556,"lng":-85.33121},"name":"The Slide","safety":"UNSPECIFIED","type":{"aid":false,"alpine":false,"bouldering":true,"ice":false,"mixed":false,"snow":false,"sport":false,"tr":false,"trad":false}},{"grades":{"font":"4","french":null,"vscale":"V0","yds":"V0"},"id":"e7c59c31-e12a-5f4c-804c-0515b88c89c2","metadata":{"lat":35.01556,"lng":-85.33121},"name":"The Fence","safety":"UNSPECIFIED","type":{"aid":false,"alpine":false,"bouldering":true,"ice":false,"mixed":false,"snow":false,"sport":false,"tr":false,"trad":false}}],"id":"6467aacce622317bdb3e0efa","metadata":{"lat":35.01556,"lng":-85.33121,"areaId":"20033a29-dc8a-5142-94a9-b243ec4200f3"}},{"areaName":"Siri","children":[],"climbs":[{"grades":{"font":"7A\u002B","french":null,"vscale":"V6-7","yds":"V6-7"},"id":"3bf55f42-455e-5ea6-8656-5ca7bd6c5368","metadata":{"lat":35.01655,"lng":-85.33515},"name":"Dorsal Loaf (sit)","safety":"UNSPECIFIED","type":{"aid":false,"alpine":false,"bouldering":true,"ice":false,"mixed":false,"snow":false,"sport":false,"tr":false,"trad":false}},{"grades":{"font":"6A","french":null,"vscale":"V3","yds":"V3"},"id":"60463598-9482-5250-bb5e-a5d1dd24645f","metadata":{"lat":35.01655,"lng":-85.33515},"name":"Red Devil","safety":"UNSPECIFIED","type":{"aid":false,"alpine":false,"bouldering":true,"ice":false,"mixed":false,"snow":false,"sport":false,"tr":false,"trad":false}},{"grades":{"font":"6B","french":null,"vscale":"V4","yds":"V4"},"id":"66f40bb9-9375-5b29-9ba1-aeb1777acd27","metadata":{"lat":35.01655,"lng":-85.33515},"name":"Clever Knee Low","safety":"UNSPECIFIED","type":{"aid":false,"alpine":false,"bouldering":true,"ice":false,"mixed":false,"snow":false,"sport":false,"tr":false,"trad":false}},{"grades":{"font":"5","french":null,"vscale":"V1","yds":"V1"},"id":"886643a3-1572-5065-9aca-b6c2587f21f2","metadata":{"lat":35.01655,"lng":-85.33515},"name":"Clever Knee","safety":"UNSPECIFIED","type":{"aid":false,"alpine":false,"bouldering":true,"ice":false,"mixed":false,"snow":false,"sport":false,"tr":false,"trad":false}},{"grades":{"font":"6B","french":null,"vscale":"V4","yds":"V4"},"id":"b91151f7-9a69-5488-93db-921b7978b7f5","metadata":{"lat":35.01655,"lng":-85.33515},"name":"Dorsal Loaf (stand)","safety":"UNSPECIFIED","type":{"aid":false,"alpine":false,"bouldering":true,"ice":false,"mixed":false,"snow":false,"sport":false,"tr":false,"trad":false}},{"grades":{"font":"6C","french":null,"vscale":"V5","yds":"V5"},"id":"be5db6ca-44c7-58f4-8dab-37329cf87aa5","metadata":{"lat":35.01655,"lng":-85.33515},"name":"Big Reveal","safety":"UNSPECIFIED","type":{"aid":false,"alpine":false,"bouldering":true,"ice":false,"mixed":false,"snow":false,"sport":false,"tr":false,"trad":false}}],"id":"6467aacce622317bdb3e0efb","metadata":{"lat":35.01655,"lng":-85.33515,"areaId":"32960875-f840-5107-8326-3d78a5376924"}},{"areaName":"Piedrita, The","children":[],"climbs":[{"grades":{"font":"5\u002B","french":null,"vscale":"V2\u002B","yds":"V2\u002B"},"id":"08573e71-9b7b-54f1-8c70-3398ccc1b53a","metadata":{"lat":35.01504,"lng":-85.33437},"name":"Crock Pot Traverse","safety":"UNSPECIFIED","type":{"aid":false,"alpine":false,"bouldering":true,"ice":false,"mixed":false,"snow":false,"sport":false,"tr":false,"trad":false}},{"grades":{"font":"6B","french":null,"vscale":"V4-","yds":"V4-"},"id":"54f61743-8ef7-5fd6-8664-ef0a3c360c9f","metadata":{"lat":35.01504,"lng":-85.33437},"name":"Lil\u0027 Dyno","safety":"UNSPECIFIED","type":{"aid":false,"alpine":false,"bouldering":true,"ice":false,"mixed":false,"snow":false,"sport":false,"tr":false,"trad":false}},{"grades":{"font":"6A","french":null,"vscale":"V3","yds":"V3"},"id":"677db006-94c9-5e08-b6cb-052f5e431d66","metadata":{"lat":35.01504,"lng":-85.33437},"name":"Sales Job","safety":"UNSPECIFIED","type":{"aid":false,"alpine":false,"bouldering":true,"ice":false,"mixed":false,"snow":false,"sport":false,"tr":false,"trad":false}}],"id":"6467aacce622317bdb3e0efc","metadata":{"lat":35.01504,"lng":-85.33437,"areaId":"9fbcf904-62c4-51c6-ae2e-9c19d364b9fb"}},{"areaName":"Mountain, The","children":[],"climbs":[{"grades":{"font":"5","french":null,"vscale":"V1","yds":"V1"},"id":"6be1f5dc-bfaf-5ec6-bc72-06195eb7224f","metadata":{"lat":35.01386,"lng":-85.33271},"name":"Roll Deep","safety":"UNSPECIFIED","type":{"aid":false,"alpine":false,"bouldering":true,"ice":false,"mixed":false,"snow":false,"sport":false,"tr":false,"trad":false}},{"grades":{"font":"7A","french":null,"vscale":"V6","yds":"V6"},"id":"9cf48c52-f0fc-5bc1-8261-b0dc0c8c4f96","metadata":{"lat":35.01386,"lng":-85.33271},"name":"Trash Foxy","safety":"UNSPECIFIED","type":{"aid":false,"alpine":false,"bouldering":true,"ice":false,"mixed":false,"snow":false,"sport":false,"tr":false,"trad":false}}],"id":"6467aacce622317bdb3e0efd","metadata":{"lat":35.01386,"lng":-85.33271,"areaId":"5c6d0bd1-cba9-5d49-9b3a-f10f508f43ac"}},{"areaName":"Upper Boulders at Old Wauhatchie Pike","children":[{"areaName":"Asteroid","children":[],"climbs":[{"grades":{"font":"5\u002B","french":null,"vscale":"V2","yds":"V2"},"id":"4346876b-e9c9-55ef-81f4-b2113e499e3f","metadata":{"lat":35.01496,"lng":-85.33441},"name":"Galaga","safety":"UNSPECIFIED","type":{"aid":false,"alpine":false,"bouldering":true,"ice":false,"mixed":false,"snow":false,"sport":false,"tr":false,"trad":false}},{"grades":{"font":"4","french":null,"vscale":"V0","yds":"V0"},"id":"7b9089f6-a2ba-5dac-bfc2-cdf368ec2a83","metadata":{"lat":35.01496,"lng":-85.33441},"name":"One Small Step","safety":"UNSPECIFIED","type":{"aid":false,"alpine":false,"bouldering":true,"ice":false,"mixed":false,"snow":false,"sport":false,"tr":false,"trad":false}},{"grades":{"font":"5\u002B","french":null,"vscale":"V2-3","yds":"V2-3"},"id":"7f1ca2f3-2e88-5fc8-b672-ee413168cc25","metadata":{"lat":35.01496,"lng":-85.33441},"name":"Line Rider","safety":"UNSPECIFIED","type":{"aid":false,"alpine":false,"bouldering":true,"ice":false,"mixed":false,"snow":false,"sport":false,"tr":false,"trad":false}}],"id":"6467aacce622317bdb3e0f0d","metadata":{"lat":35.01496,"lng":-85.33441,"areaId":"57ae0771-015b-5db5-8ea9-780eaf487e0c"}}],"climbs":[],"id":"6467aacce622317bdb3e0f0c","metadata":{"lat":35.01496,"lng":-85.33441,"areaId":"50cc65ff-d1ab-5484-a513-7d72d268486d"}},{"areaName":"Luna","children":[],"climbs":[{"grades":{"font":"5","french":null,"vscale":"V1","yds":"V1"},"id":"088646c7-9ded-56b2-9a5e-058c2d154898","metadata":{"lat":35.01357,"lng":-85.33281},"name":"Muzzle Loader","safety":"UNSPECIFIED","type":{"aid":false,"alpine":false,"bouldering":true,"ice":false,"mixed":false,"snow":false,"sport":false,"tr":false,"trad":false}},{"grades":{"font":"6C","french":null,"vscale":"V5","yds":"V5"},"id":"2d3d6f86-82d3-5e60-b717-fda933e60f43","metadata":{"lat":35.01357,"lng":-85.33281},"name":"Luna Tunes","safety":"UNSPECIFIED","type":{"aid":false,"alpine":false,"bouldering":true,"ice":false,"mixed":false,"snow":false,"sport":false,"tr":false,"trad":false}},{"grades":{"font":"6A","french":null,"vscale":"V3","yds":"V3"},"id":"3d6237eb-f618-55af-9390-c498f5b21b85","metadata":{"lat":35.01357,"lng":-85.33281},"name":"Moon Walk","safety":"UNSPECIFIED","type":{"aid":false,"alpine":false,"bouldering":true,"ice":false,"mixed":false,"snow":false,"sport":false,"tr":false,"trad":false}},{"grades":{"font":"4","french":null,"vscale":"V0","yds":"V0"},"id":"551bc775-9c53-5915-8bad-73eeb7ce99a0","metadata":{"lat":35.01357,"lng":-85.33281},"name":"Craters","safety":"UNSPECIFIED","type":{"aid":false,"alpine":false,"bouldering":true,"ice":false,"mixed":false,"snow":false,"sport":false,"tr":false,"trad":false}},{"grades":{"font":"6B","french":null,"vscale":"V4","yds":"V4"},"id":"6dfe3317-5396-5cb6-9229-74d32a927287","metadata":{"lat":35.01357,"lng":-85.33281},"name":"Moon Beam Sit, Right","safety":"UNSPECIFIED","type":{"aid":false,"alpine":false,"bouldering":true,"ice":false,"mixed":false,"snow":false,"sport":false,"tr":false,"trad":false}},{"grades":{"font":"6B\u002B","french":null,"vscale":"V4-5","yds":"V4-5"},"id":"b1aeb60b-a3ba-5ba7-8f39-9085caf58db9","metadata":{"lat":35.01357,"lng":-85.33281},"name":"Moon Beam Sit, Left","safety":"UNSPECIFIED","type":{"aid":false,"alpine":false,"bouldering":true,"ice":false,"mixed":false,"snow":false,"sport":false,"tr":false,"trad":false}},{"grades":{"font":"4","french":null,"vscale":"V0","yds":"V0"},"id":"bfbfcf38-112f-5cf9-b54a-2813d62dee73","metadata":{"lat":35.01357,"lng":-85.33281},"name":"Finish line","safety":"UNSPECIFIED","type":{"aid":false,"alpine":false,"bouldering":true,"ice":false,"mixed":false,"snow":false,"sport":false,"tr":false,"trad":false}}],"id":"6467aacce622317bdb3e0f15","metadata":{"lat":35.01357,"lng":-85.33281,"areaId":"7ea979a8-e6d5-53a7-9f95-c8642ee89666"}},{"areaName":"Lookout, The","children":[],"climbs":[],"id":"6467aacce622317bdb3e0f16","metadata":{"lat":35.01572,"lng":-85.33458,"areaId":"34f984f3-aed7-5391-9773-8a1ad62c5c51"}},{"areaName":"High Point","children":[],"climbs":[{"grades":{"font":"5","french":null,"vscale":"V1","yds":"V1"},"id":"2d7a1838-4f17-5702-b9a4-b5d326fc5f5f","metadata":{"lat":35.01421,"lng":-85.3333},"name":"Skeeter Them Feet","safety":"UNSPECIFIED","type":{"aid":false,"alpine":false,"bouldering":true,"ice":false,"mixed":false,"snow":false,"sport":false,"tr":false,"trad":false}},{"grades":{"font":"5","french":null,"vscale":"V1","yds":"V1"},"id":"617bba8b-0c1b-5ff9-876e-b8be7c9723c2","metadata":{"lat":35.01421,"lng":-85.3333},"name":"The More The Merrier","safety":"UNSPECIFIED","type":{"aid":false,"alpine":false,"bouldering":true,"ice":false,"mixed":false,"snow":false,"sport":false,"tr":false,"trad":false}},{"grades":{"font":"6B","french":null,"vscale":"V4","yds":"V4"},"id":"656260f3-8ae2-5628-b32b-fc6754838e26","metadata":{"lat":35.01421,"lng":-85.3333},"name":"What a view!","safety":"UNSPECIFIED","type":{"aid":false,"alpine":false,"bouldering":true,"ice":false,"mixed":false,"snow":false,"sport":false,"tr":false,"trad":false}},{"grades":{"font":"5\u002B","french":null,"vscale":"V2","yds":"V2"},"id":"b414b1c5-59c3-57d9-829d-436366655d82","metadata":{"lat":35.01421,"lng":-85.3333},"name":"High Council","safety":"UNSPECIFIED","type":{"aid":false,"alpine":false,"bouldering":true,"ice":false,"mixed":false,"snow":false,"sport":false,"tr":false,"trad":false}},{"grades":{"font":"5","french":null,"vscale":"V1","yds":"V1"},"id":"ea7a03e5-3531-5b5a-a759-77790f659a40","metadata":{"lat":35.01421,"lng":-85.3333},"name":"She\u0027s Twenty One!","safety":"UNSPECIFIED","type":{"aid":false,"alpine":false,"bouldering":true,"ice":false,"mixed":false,"snow":false,"sport":false,"tr":false,"trad":false}}],"id":"6467aacce622317bdb3e0f17","metadata":{"lat":35.01421,"lng":-85.3333,"areaId":"12807e65-9cc0-5d00-aa0b-4ce1cdfc799d"}},{"areaName":"Hippo","children":[],"climbs":[],"id":"6467aacce622317bdb3e0f18","metadata":{"lat":35.01555,"lng":-85.33443,"areaId":"8a00cc56-5fa9-5132-9c4d-a7fc4c06cced"}},{"areaName":"Hidden Secret","children":[],"climbs":[{"grades":{"font":"6A","french":null,"vscale":"V3","yds":"V3"},"id":"8a2651f4-a408-53d7-b13a-76b8611d0266","metadata":{"lat":35.01385,"lng":-85.33313},"name":"Three Sided Traverse","safety":"UNSPECIFIED","type":{"aid":false,"alpine":false,"bouldering":true,"ice":false,"mixed":false,"snow":false,"sport":false,"tr":false,"trad":false}}],"id":"6467aacce622317bdb3e0f19","metadata":{"lat":35.01385,"lng":-85.33313,"areaId":"e01dc42a-c961-501f-a12f-4b9795bbb03d"}},{"areaName":"Hermanos Cercanos","children":[],"climbs":[{"grades":{"font":"5","french":null,"vscale":"V1","yds":"V1"},"id":"387980ba-e24d-52bc-a2ef-3a6928cd3fa0","metadata":{"lat":35.01366,"lng":-85.33273},"name":"BFAM (Brother from another mother)","safety":"UNSPECIFIED","type":{"aid":false,"alpine":false,"bouldering":true,"ice":false,"mixed":false,"snow":false,"sport":false,"tr":false,"trad":false}},{"grades":{"font":"5\u002B","french":null,"vscale":"V2","yds":"V2"},"id":"59b5b1d1-8297-5162-8c56-1df3148afe9e","metadata":{"lat":35.01366,"lng":-85.33273},"name":"Brother Arete","safety":"UNSPECIFIED","type":{"aid":false,"alpine":false,"bouldering":true,"ice":false,"mixed":false,"snow":false,"sport":false,"tr":false,"trad":false}},{"grades":{"font":"5\u002B","french":null,"vscale":"V2","yds":"V2"},"id":"94dcf949-d912-5c1f-aa13-72590631ebfa","metadata":{"lat":35.01366,"lng":-85.33273},"name":"Cleaved","safety":"UNSPECIFIED","type":{"aid":false,"alpine":false,"bouldering":true,"ice":false,"mixed":false,"snow":false,"sport":false,"tr":false,"trad":false}},{"grades":{"font":"6B","french":null,"vscale":"V4-","yds":"V4-"},"id":"e04c3eee-8e41-5cb1-81b1-33b579d69257","metadata":{"lat":35.01366,"lng":-85.33273},"name":"Siblings","safety":"UNSPECIFIED","type":{"aid":false,"alpine":false,"bouldering":true,"ice":false,"mixed":false,"snow":false,"sport":false,"tr":false,"trad":false}}],"id":"6467aacce622317bdb3e0f1a","metadata":{"lat":35.01366,"lng":-85.33273,"areaId":"a8322367-6b5a-5bf3-9103-e9f83d211577"}},{"areaName":"Fall, The","children":[],"climbs":[],"id":"6467aacce622317bdb3e0f1b","metadata":{"lat":35.0156,"lng":-85.33369,"areaId":"dd8b4a8f-e1e1-5971-b245-b01ff133e5f2"}},{"areaName":"Face, The","children":[],"climbs":[{"grades":{"font":"6B","french":null,"vscale":"V4","yds":"V4"},"id":"c2bb13b5-efe5-52f5-bdab-ac1be80b2828","metadata":{"lat":35.01575,"lng":-85.33303},"name":"Kraftwerk","safety":"UNSPECIFIED","type":{"aid":false,"alpine":false,"bouldering":true,"ice":false,"mixed":false,"snow":false,"sport":false,"tr":false,"trad":false}},{"grades":{"font":"4","french":null,"vscale":"V0","yds":"V0"},"id":"d12331be-be7a-5018-a140-fa51ff44bb89","metadata":{"lat":35.01575,"lng":-85.33303},"name":"Ridge Traverse","safety":"UNSPECIFIED","type":{"aid":false,"alpine":false,"bouldering":true,"ice":false,"mixed":false,"snow":false,"sport":false,"tr":false,"trad":false}}],"id":"6467aacce622317bdb3e0f1c","metadata":{"lat":35.01575,"lng":-85.33303,"areaId":"ea0da03a-127d-506d-923b-c6369ce0081e"}},{"areaName":"Edge, The","children":[],"climbs":[{"grades":{"font":"4","french":null,"vscale":"V0","yds":"V0"},"id":"226b01a6-6551-58dc-bc87-eb0edd0dca00","metadata":{"lat":35.01557,"lng":-85.33121},"name":"Middle Slab","safety":"UNSPECIFIED","type":{"aid":false,"alpine":false,"bouldering":true,"ice":false,"mixed":false,"snow":false,"sport":false,"tr":false,"trad":false}},{"grades":{"font":"5\u002B","french":null,"vscale":"V2","yds":"V2"},"id":"23c37861-7647-5760-a3e9-f083584b6854","metadata":{"lat":35.01557,"lng":-85.33121},"name":"Right Arete","safety":"UNSPECIFIED","type":{"aid":false,"alpine":false,"bouldering":true,"ice":false,"mixed":false,"snow":false,"sport":false,"tr":false,"trad":false}},{"grades":{"font":"4","french":null,"vscale":"V0","yds":"V0"},"id":"6be37d11-8275-5ebb-8474-08e5d2cfd212","metadata":{"lat":35.01557,"lng":-85.33121},"name":"Left Slab","safety":"UNSPECIFIED","type":{"aid":false,"alpine":false,"bouldering":true,"ice":false,"mixed":false,"snow":false,"sport":false,"tr":false,"trad":false}}],"id":"6467aacce622317bdb3e0f1d","metadata":{"lat":35.01557,"lng":-85.33121,"areaId":"2d70104f-36b7-584c-9b5d-edd41a6ec4d0"}},{"areaName":"Dino","children":[],"climbs":[{"grades":{"font":"5\u002B","french":null,"vscale":"V2","yds":"V2"},"id":"16d47090-003b-5a2c-9f92-4d4697f5fd97","metadata":{"lat":35.01575,"lng":-85.33303},"name":"Payback Layback","safety":"UNSPECIFIED","type":{"aid":false,"alpine":false,"bouldering":true,"ice":false,"mixed":false,"snow":false,"sport":false,"tr":false,"trad":false}},{"grades":{"font":"6B","french":null,"vscale":"V4","yds":"V4"},"id":"7f2dc2b7-276e-508f-b438-b90cff739a4f","metadata":{"lat":35.01575,"lng":-85.33303},"name":"Dentist","safety":"UNSPECIFIED","type":{"aid":false,"alpine":false,"bouldering":true,"ice":false,"mixed":false,"snow":false,"sport":false,"tr":false,"trad":false}}],"id":"6467aacce622317bdb3e0f1e","metadata":{"lat":35.01575,"lng":-85.33303,"areaId":"c26e9204-1626-58ad-ba0d-18081b8f570e"}},{"areaName":"Cliffhanger, The","children":[],"climbs":[{"grades":{"font":"8A","french":null,"vscale":"V10-11","yds":"V10-11"},"id":"1713fee1-a794-593c-9651-a3de4c42daba","metadata":{"lat":35.01581,"lng":-85.33294},"name":"project","safety":"UNSPECIFIED","type":{"aid":false,"alpine":false,"bouldering":true,"ice":false,"mixed":false,"snow":false,"sport":false,"tr":false,"trad":false}},{"grades":{"font":"6A","french":null,"vscale":"V3","yds":"V3"},"id":"1943c414-fb12-508a-b068-36598c0d2fe8","metadata":{"lat":35.01581,"lng":-85.33294},"name":"Graffiti Eye Ball","safety":"UNSPECIFIED","type":{"aid":false,"alpine":false,"bouldering":true,"ice":false,"mixed":false,"snow":false,"sport":false,"tr":false,"trad":false}},{"grades":{"font":"6C\u002B","french":null,"vscale":"V5\u002B","yds":"V5\u002B"},"id":"1b794bd1-d068-5bc6-a207-ed3b8a1e7f7b","metadata":{"lat":35.01581,"lng":-85.33294},"name":"Old Greg","safety":"UNSPECIFIED","type":{"aid":false,"alpine":false,"bouldering":true,"ice":false,"mixed":false,"snow":false,"sport":false,"tr":false,"trad":false}},{"grades":{"font":"5\u002B","french":null,"vscale":"V2\u002B","yds":"V2\u002B"},"id":"26fc74aa-a923-5db1-92c4-aa497049246c","metadata":{"lat":35.01581,"lng":-85.33294},"name":"Fish Mouth","safety":"UNSPECIFIED","type":{"aid":false,"alpine":false,"bouldering":true,"ice":false,"mixed":false,"snow":false,"sport":false,"tr":false,"trad":false}},{"grades":{"font":"4\u002B","french":null,"vscale":"V0-1","yds":"V0-1"},"id":"31c3ef3e-feae-584f-9a29-12503a22f8b4","metadata":{"lat":35.01581,"lng":-85.33294},"name":"Cliffhanger","safety":"UNSPECIFIED","type":{"aid":false,"alpine":false,"bouldering":true,"ice":false,"mixed":false,"snow":false,"sport":false,"tr":false,"trad":false}},{"grades":{"font":"6A","french":null,"vscale":"V3","yds":"V3"},"id":"5f15af34-ba0a-57ca-956c-7e8280120e39","metadata":{"lat":35.01581,"lng":-85.33294},"name":"Hammerhead","safety":"UNSPECIFIED","type":{"aid":false,"alpine":false,"bouldering":true,"ice":false,"mixed":false,"snow":false,"sport":false,"tr":false,"trad":false}},{"grades":{"font":"5\u002B","french":null,"vscale":"V2-","yds":"V2-"},"id":"7fcdcc98-285b-5500-a955-86a6435845a5","metadata":{"lat":35.01581,"lng":-85.33294},"name":"Unterclick","safety":"UNSPECIFIED","type":{"aid":false,"alpine":false,"bouldering":true,"ice":false,"mixed":false,"snow":false,"sport":false,"tr":false,"trad":false}},{"grades":{"font":"6B","french":null,"vscale":"V4","yds":"V4"},"id":"9430e993-d692-50a4-9e98-de21c8722979","metadata":{"lat":35.01581,"lng":-85.33294},"name":"Yo Bro Adventures","safety":"UNSPECIFIED","type":{"aid":false,"alpine":false,"bouldering":true,"ice":false,"mixed":false,"snow":false,"sport":false,"tr":false,"trad":false}},{"grades":{"font":"5","french":null,"vscale":"V1-2","yds":"V1-2"},"id":"b2880d00-b5b1-528d-ab33-0bb05f5b23b8","metadata":{"lat":35.01581,"lng":-85.33294},"name":"Chip \u0026 Lindsay\u0027s Adventure","safety":"UNSPECIFIED","type":{"aid":false,"alpine":false,"bouldering":true,"ice":false,"mixed":false,"snow":false,"sport":false,"tr":false,"trad":false}},{"grades":{"font":"6C\u002B","french":null,"vscale":"V5-6","yds":"V5-6"},"id":"b8d0fd54-98b9-54ca-9193-fde7f4093d21","metadata":{"lat":35.01581,"lng":-85.33294},"name":"Dirt Dabber","safety":"UNSPECIFIED","type":{"aid":false,"alpine":false,"bouldering":true,"ice":false,"mixed":false,"snow":false,"sport":false,"tr":false,"trad":false}},{"grades":{"font":"6A","french":null,"vscale":"V3","yds":"V3"},"id":"c3a07473-b8f5-522d-a3f2-c24e8ba57686","metadata":{"lat":35.01581,"lng":-85.33294},"name":"Shark Mouth","safety":"UNSPECIFIED","type":{"aid":false,"alpine":false,"bouldering":true,"ice":false,"mixed":false,"snow":false,"sport":false,"tr":false,"trad":false}},{"grades":{"font":"6B\u002B","french":null,"vscale":"V4-5","yds":"V4-5"},"id":"d70e1ebb-ae4e-526f-9d92-40d3ead50fbc","metadata":{"lat":35.01581,"lng":-85.33294},"name":"Chief Wauhatchie","safety":"UNSPECIFIED","type":{"aid":false,"alpine":false,"bouldering":true,"ice":false,"mixed":false,"snow":false,"sport":false,"tr":false,"trad":false}},{"grades":{"font":"4\u002B","french":null,"vscale":"V0\u002B","yds":"V0\u002B"},"id":"dc05b1b9-2604-51e0-a9a3-c8c60658ca10","metadata":{"lat":35.01581,"lng":-85.33294},"name":"Pump Track","safety":"UNSPECIFIED","type":{"aid":false,"alpine":false,"bouldering":true,"ice":false,"mixed":false,"snow":false,"sport":false,"tr":false,"trad":false}},{"grades":{"font":"5","french":null,"vscale":"V1","yds":"V1"},"id":"de300247-12e7-5849-867e-cee08d2738ad","metadata":{"lat":35.01581,"lng":-85.33294},"name":"The Hidden","safety":"UNSPECIFIED","type":{"aid":false,"alpine":false,"bouldering":true,"ice":false,"mixed":false,"snow":false,"sport":false,"tr":false,"trad":false}},{"grades":{"font":"4","french":null,"vscale":"V0","yds":"V0"},"id":"edfbf0a7-2ebf-5665-9915-21643368391c","metadata":{"lat":35.01581,"lng":-85.33294},"name":"Warm Up Muffins","safety":"UNSPECIFIED","type":{"aid":false,"alpine":false,"bouldering":true,"ice":false,"mixed":false,"snow":false,"sport":false,"tr":false,"trad":false}},{"grades":{"font":"7A","french":null,"vscale":"V6-","yds":"V6-"},"id":"f713b246-0fda-54b1-b9e3-58320db25eb7","metadata":{"lat":35.01581,"lng":-85.33294},"name":"Bailey\u0027s From a Shoe","safety":"UNSPECIFIED","type":{"aid":false,"alpine":false,"bouldering":true,"ice":false,"mixed":false,"snow":false,"sport":false,"tr":false,"trad":false}},{"grades":{"font":"6B","french":null,"vscale":"V4-","yds":"V4-"},"id":"facff202-0fe1-5c95-971f-c479c0558799","metadata":{"lat":35.01581,"lng":-85.33294},"name":"Chief Wauhatchie Right Finish","safety":"UNSPECIFIED","type":{"aid":false,"alpine":false,"bouldering":true,"ice":false,"mixed":false,"snow":false,"sport":false,"tr":false,"trad":false}}],"id":"6467aacce622317bdb3e0f1f","metadata":{"lat":35.01581,"lng":-85.33294,"areaId":"ce8e2080-2f50-5c78-8fdc-bab9d7341544"}},{"areaName":"Bulge, The","children":[],"climbs":[],"id":"6467aacce622317bdb3e0f20","metadata":{"lat":35.01562,"lng":-85.33277,"areaId":"5abf2b7c-0596-5a5e-89bd-7a901adaeab4"}},{"areaName":"Buena Vista","children":[],"climbs":[{"grades":{"font":"7B","french":null,"vscale":"V8","yds":"V8"},"id":"0c9cf9f5-7b55-57bc-8d01-dd487d86d4b0","metadata":{"lat":35.01519,"lng":-85.3344},"name":"Vista Tercera","safety":"UNSPECIFIED","type":{"aid":false,"alpine":false,"bouldering":true,"ice":false,"mixed":false,"snow":false,"sport":false,"tr":false,"trad":false}},{"grades":{"font":"6B\u002B","french":null,"vscale":"V4-5","yds":"V4-5"},"id":"19a91fb6-ba60-5773-806f-6cc131722d98","metadata":{"lat":35.01519,"lng":-85.3344},"name":"What a View!","safety":"UNSPECIFIED","type":{"aid":false,"alpine":false,"bouldering":true,"ice":false,"mixed":false,"snow":false,"sport":false,"tr":false,"trad":false}},{"grades":{"font":"7B","french":null,"vscale":"V8-","yds":"V8-"},"id":"51d9da2d-9776-55ae-ad6f-fc74ab67e47e","metadata":{"lat":35.01519,"lng":-85.3344},"name":"Polish Cow","safety":"UNSPECIFIED","type":{"aid":false,"alpine":false,"bouldering":true,"ice":false,"mixed":false,"snow":false,"sport":false,"tr":false,"trad":false}},{"grades":{"font":"5\u002B","french":null,"vscale":"V2\u002B","yds":"V2\u002B"},"id":"9f283dd2-6536-51e1-9671-a65c37337561","metadata":{"lat":35.01519,"lng":-85.3344},"name":"Cut and Chopped","safety":"UNSPECIFIED","type":{"aid":false,"alpine":false,"bouldering":true,"ice":false,"mixed":false,"snow":false,"sport":false,"tr":false,"trad":false}},{"grades":{"font":"6A\u002B","french":null,"vscale":"V3-4","yds":"V3-4"},"id":"d5995145-dcba-55ac-898f-25bd42ea3c91","metadata":{"lat":35.01519,"lng":-85.3344},"name":"Angle Fangle (high)","safety":"UNSPECIFIED","type":{"aid":false,"alpine":false,"bouldering":true,"ice":false,"mixed":false,"snow":false,"sport":false,"tr":false,"trad":false}}],"id":"6467aacce622317bdb3e0f21","metadata":{"lat":35.01519,"lng":-85.3344,"areaId":"dd71b7cf-1408-551f-aff9-13259285c5aa"}},{"areaName":"Asteroid","children":[],"climbs":[{"grades":{"font":"6C","french":null,"vscale":"V5","yds":"V5"},"id":"1c2dd2cf-5125-5064-945e-e1673bede435","metadata":{"lat":35.01485,"lng":-85.33441},"name":"Can you dig it?","safety":"UNSPECIFIED","type":{"aid":false,"alpine":false,"bouldering":true,"ice":false,"mixed":false,"snow":false,"sport":false,"tr":false,"trad":false}},{"grades":{"font":"6A\u002B","french":null,"vscale":"V3-4","yds":"V3-4"},"id":"4cfe16d5-a9ba-5bff-a00d-5abe0559a2f5","metadata":{"lat":35.01485,"lng":-85.33441},"name":"Traversaroids","safety":"UNSPECIFIED","type":{"aid":false,"alpine":false,"bouldering":true,"ice":false,"mixed":false,"snow":false,"sport":false,"tr":false,"trad":false}},{"grades":{"font":"4\u002B","french":null,"vscale":"V0-1","yds":"V0-1"},"id":"91e10887-b0a4-5e19-b71f-03e94ca51560","metadata":{"lat":35.01485,"lng":-85.33441},"name":"One Hit Wonder","safety":"UNSPECIFIED","type":{"aid":false,"alpine":false,"bouldering":true,"ice":false,"mixed":false,"snow":false,"sport":false,"tr":false,"trad":false}}],"id":"6467aacce622317bdb3e0f22","metadata":{"lat":35.01485,"lng":-85.33441,"areaId":"801107a6-7580-5766-8211-eaeabb57635c"}},{"areaName":"Acheson","children":[],"climbs":[{"grades":{"font":"7A","french":null,"vscale":"V6","yds":"V6"},"id":"069c3857-47fd-5d29-86a5-14360468943f","metadata":{"lat":35.01388,"lng":-85.33303},"name":"Achey Heart","safety":"UNSPECIFIED","type":{"aid":false,"alpine":false,"bouldering":true,"ice":false,"mixed":false,"snow":false,"sport":false,"tr":false,"trad":false}},{"grades":{"font":"6C","french":null,"vscale":"V5","yds":"V5"},"id":"0b0c754c-281c-525a-928a-2687336f1283","metadata":{"lat":35.01388,"lng":-85.33303},"name":"Troll Toll","safety":"UNSPECIFIED","type":{"aid":false,"alpine":false,"bouldering":true,"ice":false,"mixed":false,"snow":false,"sport":false,"tr":false,"trad":false}}],"id":"6467aacce622317bdb3e0f23","metadata":{"lat":35.01388,"lng":-85.33303,"areaId":"7d69792e-9416-5487-b47b-98485396f077"}}],"climbs":[],"id":"6467aacce622317bdb3e0e99","metadata":{"lat":35.01505869565217,"lng":-85.3333395652174,"areaId":"9af5eb4b-4c1c-5168-a537-c656f5e709d6"}},{"areaName":"Black Mountain","children":[{"areaName":"Upper Area \u0026 Graceland","children":[],"climbs":[{"grades":{"font":null,"french":"4c","vscale":null,"yds":"5.6"},"id":"0e52547b-df03-5d11-8725-85b4605b33cf","metadata":{"lat":35.86658,"lng":-84.89528},"name":"Elvis the Messiah","safety":"UNSPECIFIED","type":{"aid":false,"alpine":false,"bouldering":false,"ice":false,"mixed":false,"snow":false,"sport":false,"tr":true,"trad":false}},{"grades":{"font":"7A","french":null,"vscale":"V6","yds":"V6"},"id":"14d82113-c092-5efb-b0c9-621f3a1f40d2","metadata":{"lat":35.86658,"lng":-84.89528},"name":"Grounded","safety":"UNSPECIFIED","type":{"aid":false,"alpine":false,"bouldering":true,"ice":false,"mixed":false,"snow":false,"sport":false,"tr":false,"trad":false}},{"grades":{"font":null,"french":"5c","vscale":null,"yds":"5.9"},"id":"1f6e2903-d001-5093-b472-ed529b92bee8","metadata":{"lat":35.86658,"lng":-84.89528},"name":"Love and Abuse","safety":"UNSPECIFIED","type":{"aid":false,"alpine":false,"bouldering":false,"ice":false,"mixed":false,"snow":false,"sport":true,"tr":true,"trad":false}},{"grades":{"font":null,"french":"6b\u002B","vscale":null,"yds":"5.10\u002B"},"id":"28832904-14ff-5de2-b6e9-bfdefd772969","metadata":{"lat":35.86658,"lng":-84.89528},"name":"Kool Beans","safety":"UNSPECIFIED","type":{"aid":false,"alpine":false,"bouldering":false,"ice":false,"mixed":false,"snow":false,"sport":false,"tr":true,"trad":false}},{"grades":{"font":null,"french":"5c","vscale":null,"yds":"5.9"},"id":"2ec45f52-589b-5774-abad-64562f1cb69a","metadata":{"lat":35.86658,"lng":-84.89528},"name":"You Ain\u0027t Nothin But a Hang Dog","safety":"UNSPECIFIED","type":{"aid":false,"alpine":false,"bouldering":false,"ice":false,"mixed":false,"snow":false,"sport":true,"tr":true,"trad":false}},{"grades":{"font":null,"french":"5b","vscale":null,"yds":"5.8"},"id":"3aa9c5d0-ad7e-5300-879f-456dceb1ed27","metadata":{"lat":35.86658,"lng":-84.89528},"name":"Killarete","safety":"UNSPECIFIED","type":{"aid":false,"alpine":false,"bouldering":false,"ice":false,"mixed":false,"snow":false,"sport":false,"tr":true,"trad":true}},{"grades":{"font":"6B","french":null,"vscale":"V4-","yds":"V4-"},"id":"3cae3e96-0e24-5904-9669-5b660c12fbbc","metadata":{"lat":35.86658,"lng":-84.89528},"name":"Xiphos?","safety":"UNSPECIFIED","type":{"aid":false,"alpine":false,"bouldering":true,"ice":false,"mixed":false,"snow":false,"sport":false,"tr":false,"trad":false}},{"grades":{"font":null,"french":"5b","vscale":null,"yds":"5.8\u002B"},"id":"491173d8-36c2-5eea-be0d-14e28c5c5132","metadata":{"lat":35.86658,"lng":-84.89528},"name":"Unknown","safety":"UNSPECIFIED","type":{"aid":false,"alpine":false,"bouldering":false,"ice":false,"mixed":false,"snow":false,"sport":true,"tr":true,"trad":false}},{"grades":{"font":null,"french":"6a\u002B","vscale":null,"yds":"5.10b"},"id":"4c8574a0-179b-5fe3-b4d6-6d85dab2ea84","metadata":{"lat":35.86658,"lng":-84.89528},"name":"Sandstone Jungle","safety":"UNSPECIFIED","type":{"aid":false,"alpine":false,"bouldering":false,"ice":false,"mixed":false,"snow":false,"sport":true,"tr":true,"trad":false}},{"grades":{"font":"5","french":null,"vscale":"V1","yds":"V1"},"id":"5824eaf0-2e5b-59aa-9f35-d153a344ad4a","metadata":{"lat":35.86658,"lng":-84.89528},"name":"Chianti","safety":"UNSPECIFIED","type":{"aid":false,"alpine":false,"bouldering":true,"ice":false,"mixed":false,"snow":false,"sport":false,"tr":false,"trad":false}},{"grades":{"font":"5\u002B","french":null,"vscale":"V2","yds":"V2"},"id":"6193f240-cbdf-5179-9bc3-4d251ca72595","metadata":{"lat":35.86658,"lng":-84.89528},"name":"Lofos","safety":"UNSPECIFIED","type":{"aid":false,"alpine":false,"bouldering":true,"ice":false,"mixed":false,"snow":false,"sport":false,"tr":false,"trad":false}},{"grades":{"font":null,"french":"5b","vscale":null,"yds":"5.8"},"id":"679d3387-a9ed-5153-9b89-59970917ea8c","metadata":{"lat":35.86658,"lng":-84.89528},"name":"Elvis Never Wore Lycra","safety":"UNSPECIFIED","type":{"aid":false,"alpine":false,"bouldering":false,"ice":false,"mixed":false,"snow":false,"sport":true,"tr":false,"trad":false}},{"grades":{"font":null,"french":"6b","vscale":null,"yds":"5.10c"},"id":"79c5bd73-98a9-5838-aeec-79f5b5130905","metadata":{"lat":35.86658,"lng":-84.89528},"name":"Golden Blonde","safety":"UNSPECIFIED","type":{"aid":false,"alpine":false,"bouldering":false,"ice":false,"mixed":false,"snow":false,"sport":false,"tr":true,"trad":false}},{"grades":{"font":"6C","french":null,"vscale":"V5","yds":"V5"},"id":"8845beb8-c0cd-5303-8be4-42a6ea56bf0a","metadata":{"lat":35.86658,"lng":-84.89528},"name":"Rainbow Warrior","safety":"UNSPECIFIED","type":{"aid":false,"alpine":false,"bouldering":true,"ice":false,"mixed":false,"snow":false,"sport":false,"tr":false,"trad":false}},{"grades":{"font":null,"french":"4a","vscale":null,"yds":"5.4"},"id":"93f0973c-ad73-5f59-9e6e-c631f2e7dea7","metadata":{"lat":35.86658,"lng":-84.89528},"name":"Neither Desperate Nor Serious","safety":"R","type":{"aid":false,"alpine":false,"bouldering":false,"ice":false,"mixed":false,"snow":false,"sport":false,"tr":true,"trad":true}},{"grades":{"font":null,"french":"5a","vscale":null,"yds":"5.7"},"id":"9723cba4-e03d-55b7-9615-550db45d78d8","metadata":{"lat":35.86658,"lng":-84.89528},"name":"Elvis Love Child","safety":"UNSPECIFIED","type":{"aid":false,"alpine":false,"bouldering":false,"ice":false,"mixed":false,"snow":false,"sport":true,"tr":true,"trad":false}},{"grades":{"font":null,"french":"6c\u002B","vscale":null,"yds":"5.11"},"id":"98742fc1-745c-597a-8383-ea97466c7e0b","metadata":{"lat":35.86658,"lng":-84.89528},"name":"The Kingdom","safety":"UNSPECIFIED","type":{"aid":false,"alpine":false,"bouldering":false,"ice":false,"mixed":false,"snow":false,"sport":false,"tr":true,"trad":false}},{"grades":{"font":"5","french":null,"vscale":"V1","yds":"V1"},"id":"b51c03b0-7e9a-5a24-bd25-c22d6985e531","metadata":{"lat":35.86658,"lng":-84.89528},"name":"Chossy pebbles","safety":"UNSPECIFIED","type":{"aid":false,"alpine":false,"bouldering":true,"ice":false,"mixed":false,"snow":false,"sport":false,"tr":false,"trad":false}},{"grades":{"font":null,"french":"5b","vscale":null,"yds":"5.8"},"id":"bcc56650-a87c-5577-837d-ae101fa449b3","metadata":{"lat":35.86658,"lng":-84.89528},"name":"Rock and Roll Will Never Die","safety":"UNSPECIFIED","type":{"aid":false,"alpine":false,"bouldering":false,"ice":false,"mixed":false,"snow":false,"sport":true,"tr":true,"trad":false}},{"grades":{"font":"5\u002B","french":null,"vscale":"V2","yds":"V2"},"id":"c3d710fe-e046-5ac8-ac7f-eaa827aea0b3","metadata":{"lat":35.86658,"lng":-84.89528},"name":"Mark Large Arete","safety":"UNSPECIFIED","type":{"aid":false,"alpine":false,"bouldering":true,"ice":false,"mixed":false,"snow":false,"sport":false,"tr":false,"trad":false}}],"id":"6467aacce622317bdb3e0e9c","metadata":{"lat":35.86658,"lng":-84.89528,"areaId":"7ef0ab48-3807-5858-8640-487e592c03a3"}},{"areaName":"Tityos Block Area","children":[],"climbs":[{"grades":{"font":"7A","french":null,"vscale":"V6","yds":"V6"},"id":"2114aa6d-50b1-54ad-8fa8-dc6c047be5f7","metadata":{"lat":35.86626,"lng":-84.89416},"name":"Ahab","safety":"UNSPECIFIED","type":{"aid":false,"alpine":false,"bouldering":true,"ice":false,"mixed":false,"snow":false,"sport":false,"tr":false,"trad":false}},{"grades":{"font":"6A","french":null,"vscale":"V3","yds":"V3"},"id":"28bd7ef5-5f8d-5cd7-bcee-ca796e42c0d2","metadata":{"lat":35.86626,"lng":-84.89416},"name":"Spider crack","safety":"UNSPECIFIED","type":{"aid":false,"alpine":false,"bouldering":true,"ice":false,"mixed":false,"snow":false,"sport":false,"tr":false,"trad":false}},{"grades":{"font":null,"french":"6a","vscale":null,"yds":"5.10a"},"id":"321f2637-0973-5800-97df-fc74541fe868","metadata":{"lat":35.86626,"lng":-84.89416},"name":"Redneck Culture","safety":"UNSPECIFIED","type":{"aid":false,"alpine":false,"bouldering":false,"ice":false,"mixed":false,"snow":false,"sport":false,"tr":true,"trad":false}},{"grades":{"font":null,"french":"6a\u002B","vscale":null,"yds":"5.10a/b"},"id":"4f25e9e0-e2e1-5a5b-8cb1-7344ba9f9f5b","metadata":{"lat":35.86626,"lng":-84.89416},"name":"Prophylactic Acid","safety":"UNSPECIFIED","type":{"aid":false,"alpine":false,"bouldering":false,"ice":false,"mixed":false,"snow":false,"sport":true,"tr":false,"trad":false}},{"grades":{"font":null,"french":"7a","vscale":null,"yds":"5.11d"},"id":"50d7d1e6-7768-5972-b8f9-15db65a1841a","metadata":{"lat":35.86626,"lng":-84.89416},"name":"Cenobite","safety":"R","type":{"aid":false,"alpine":false,"bouldering":false,"ice":false,"mixed":false,"snow":false,"sport":false,"tr":false,"trad":true}},{"grades":{"font":null,"french":"7b","vscale":null,"yds":"5.12a/b"},"id":"9533e912-8187-598c-846b-29c25da98057","metadata":{"lat":35.86626,"lng":-84.89416},"name":"Tityos","safety":"UNSPECIFIED","type":{"aid":false,"alpine":false,"bouldering":false,"ice":false,"mixed":false,"snow":false,"sport":true,"tr":false,"trad":false}},{"grades":{"font":"5\u002B","french":null,"vscale":"V2","yds":"V2"},"id":"993f8986-d46c-5911-a0a4-fc58fbf4469b","metadata":{"lat":35.86626,"lng":-84.89416},"name":"Sunrise","safety":"UNSPECIFIED","type":{"aid":false,"alpine":false,"bouldering":true,"ice":false,"mixed":false,"snow":false,"sport":false,"tr":false,"trad":false}},{"grades":{"font":null,"french":"4c","vscale":null,"yds":"5.6"},"id":"ac25ce1a-a345-5aea-aef6-9609a5296334","metadata":{"lat":35.86626,"lng":-84.89416},"name":"Romper Route","safety":"UNSPECIFIED","type":{"aid":false,"alpine":false,"bouldering":false,"ice":false,"mixed":false,"snow":false,"sport":true,"tr":false,"trad":false}},{"grades":{"font":"6A","french":null,"vscale":"V3","yds":"V3"},"id":"b420a621-b720-5034-90ad-06ecf9d57041","metadata":{"lat":35.86626,"lng":-84.89416},"name":"Dark side of the moon","safety":"UNSPECIFIED","type":{"aid":false,"alpine":false,"bouldering":true,"ice":false,"mixed":false,"snow":false,"sport":false,"tr":false,"trad":false}},{"grades":{"font":"5","french":null,"vscale":"V1\u002B","yds":"V1\u002B"},"id":"bc7b71e5-ca48-5b45-bab8-d33e1c7587f8","metadata":{"lat":35.86626,"lng":-84.89416},"name":"Pebble Power","safety":"UNSPECIFIED","type":{"aid":false,"alpine":false,"bouldering":true,"ice":false,"mixed":false,"snow":false,"sport":false,"tr":false,"trad":false}},{"grades":{"font":"6C","french":null,"vscale":"V5","yds":"V5"},"id":"c0931764-84a8-5632-bc88-ada74de1f8cf","metadata":{"lat":35.86626,"lng":-84.89416},"name":"The Gargoyle","safety":"UNSPECIFIED","type":{"aid":false,"alpine":false,"bouldering":true,"ice":false,"mixed":false,"snow":false,"sport":false,"tr":false,"trad":false}},{"grades":{"font":null,"french":"5a","vscale":null,"yds":"5.7\u002B"},"id":"ce00ea18-8f71-59f3-b732-0414505a6632","metadata":{"lat":35.86626,"lng":-84.89416},"name":"Thrilla Gorilla","safety":"UNSPECIFIED","type":{"aid":false,"alpine":false,"bouldering":false,"ice":false,"mixed":false,"snow":false,"sport":false,"tr":false,"trad":true}},{"grades":{"font":null,"french":"6c\u002B","vscale":null,"yds":"5.11c"},"id":"fefcae84-2329-5b06-825a-3a8ecf21669e","metadata":{"lat":35.86626,"lng":-84.89416},"name":"\u002211c\u0022","safety":"UNSPECIFIED","type":{"aid":false,"alpine":false,"bouldering":false,"ice":false,"mixed":false,"snow":false,"sport":true,"tr":true,"trad":false}}],"id":"6467aacce622317bdb3e0ef6","metadata":{"lat":35.86626,"lng":-84.89416,"areaId":"79ac16d4-12bd-5b7a-8149-c466b39b880f"}},{"areaName":"Perfect Access Rock","children":[],"climbs":[{"grades":{"font":null,"french":"5c","vscale":null,"yds":"5.9\u002B"},"id":"40020979-3045-5ad1-8d2b-c638d7571d99","metadata":{"lat":35.86659,"lng":-84.89061},"name":"Lichen or Not","safety":"UNSPECIFIED","type":{"aid":false,"alpine":false,"bouldering":false,"ice":false,"mixed":false,"snow":false,"sport":true,"tr":true,"trad":false}},{"grades":{"font":"4","french":null,"vscale":"V0","yds":"V0"},"id":"55d0df44-12c1-57b7-863f-36588a305e8b","metadata":{"lat":35.86659,"lng":-84.89061},"name":"Jug city","safety":"UNSPECIFIED","type":{"aid":false,"alpine":false,"bouldering":true,"ice":false,"mixed":false,"snow":false,"sport":false,"tr":false,"trad":false}},{"grades":{"font":null,"french":"4c","vscale":null,"yds":"5.6"},"id":"5c9d6930-3646-5b10-9e38-3ccc7aac6920","metadata":{"lat":35.86659,"lng":-84.89061},"name":"5.6 Crack","safety":"UNSPECIFIED","type":{"aid":false,"alpine":false,"bouldering":false,"ice":false,"mixed":false,"snow":false,"sport":false,"tr":true,"trad":true}},{"grades":{"font":"5\u002B","french":null,"vscale":"V2","yds":"V2"},"id":"8069129c-c662-5bf2-8cbc-9289ef6efff8","metadata":{"lat":35.86659,"lng":-84.89061},"name":"The Diving Board","safety":"UNSPECIFIED","type":{"aid":false,"alpine":false,"bouldering":true,"ice":false,"mixed":false,"snow":false,"sport":false,"tr":false,"trad":false}},{"grades":{"font":null,"french":"6a\u002B","vscale":null,"yds":"5.10b"},"id":"a4271550-c092-564c-9360-658abb4e6dee","metadata":{"lat":35.86659,"lng":-84.89061},"name":"The Mousetrap","safety":"UNSPECIFIED","type":{"aid":false,"alpine":false,"bouldering":false,"ice":false,"mixed":false,"snow":false,"sport":true,"tr":true,"trad":false}},{"grades":{"font":null,"french":"5c","vscale":null,"yds":"5.9"},"id":"c759fc3b-b5e0-56cf-a1ab-7bc77065ac63","metadata":{"lat":35.86659,"lng":-84.89061},"name":"To Be, or Left of Bee","safety":"UNSPECIFIED","type":{"aid":false,"alpine":false,"bouldering":false,"ice":false,"mixed":false,"snow":false,"sport":false,"tr":true,"trad":true}}],"id":"6467aacce622317bdb3e0ef7","metadata":{"lat":35.86659,"lng":-84.89061,"areaId":"9e424c27-f2ff-5ae8-97f8-5f4c26571187"}}],"climbs":[],"id":"6467aacce622317bdb3e0e9b","metadata":{"lat":35.866476666666664,"lng":-84.89335,"areaId":"2a8b284e-517e-5d61-8185-ec898c817597"}},{"areaName":"Big South Fork","children":[{"areaName":"Wild Wall","children":[],"climbs":[{"grades":{"font":null,"french":"5c","vscale":null,"yds":"5.9"},"id":"205cf707-70f9-515f-8294-bf3e4d224c8a","metadata":{"lat":36.51395,"lng":-84.64447},"name":"Big South Fort","safety":"UNSPECIFIED","type":{"aid":false,"alpine":false,"bouldering":false,"ice":false,"mixed":false,"snow":false,"sport":false,"tr":false,"trad":true}},{"grades":{"font":null,"french":"5c","vscale":null,"yds":"5.9\u002B"},"id":"2172a026-ecd7-5b0b-941e-a1aaced5288b","metadata":{"lat":36.51395,"lng":-84.64447},"name":"Spider Rain","safety":"UNSPECIFIED","type":{"aid":false,"alpine":false,"bouldering":false,"ice":false,"mixed":false,"snow":false,"sport":false,"tr":false,"trad":true}},{"grades":{"font":null,"french":"6a\u002B","vscale":null,"yds":"5.10b"},"id":"5cd5ad46-11fb-5bf0-aa25-575f6329b8e6","metadata":{"lat":36.51395,"lng":-84.64447},"name":"Animal Territory","safety":"UNSPECIFIED","type":{"aid":false,"alpine":false,"bouldering":false,"ice":false,"mixed":false,"snow":false,"sport":false,"tr":false,"trad":true}},{"grades":{"font":null,"french":"7a\u002B","vscale":null,"yds":"5.12a"},"id":"bb25aa47-e07c-5f03-960d-a8e1e95a1112","metadata":{"lat":36.51395,"lng":-84.64447},"name":"What Madness","safety":"UNSPECIFIED","type":{"aid":false,"alpine":false,"bouldering":false,"ice":false,"mixed":false,"snow":false,"sport":false,"tr":false,"trad":true}},{"grades":{"font":null,"french":"6a\u002B","vscale":null,"yds":"5.10b"},"id":"bce56d7c-7f3e-56ca-bbce-2e390560c885","metadata":{"lat":36.51395,"lng":-84.64447},"name":"Tennessee Triathalon","safety":"UNSPECIFIED","type":{"aid":false,"alpine":false,"bouldering":false,"ice":false,"mixed":false,"snow":false,"sport":false,"tr":false,"trad":true}},{"grades":{"font":null,"french":"4c","vscale":null,"yds":"5.6"},"id":"c000977f-5184-56a1-bcf3-0c779673cd29","metadata":{"lat":36.51395,"lng":-84.64447},"name":"Chanchors","safety":"UNSPECIFIED","type":{"aid":false,"alpine":false,"bouldering":false,"ice":false,"mixed":false,"snow":false,"sport":false,"tr":false,"trad":true}}],"id":"6467aacce622317bdb3e0e9e","metadata":{"lat":36.51395,"lng":-84.64447,"areaId":"b734cc72-7452-5c97-a0a2-02ae25480b99"}},{"areaName":"White Oak Creek","children":[],"climbs":[{"grades":{"font":null,"french":"6b","vscale":null,"yds":"5.10"},"id":"02bf57a0-00ca-5c90-81b1-6ccf03d25782","metadata":{"lat":36.45462,"lng":-84.66365},"name":"Crack Of Noon","safety":"PG","type":{"aid":false,"alpine":false,"bouldering":false,"ice":false,"mixed":false,"snow":false,"sport":false,"tr":false,"trad":true}},{"grades":{"font":null,"french":"6c\u002B","vscale":null,"yds":"5.11"},"id":"a9599f29-14d1-5796-8995-b315159a7a29","metadata":{"lat":36.45462,"lng":-84.66365},"name":"Lightning bolt crack","safety":"UNSPECIFIED","type":{"aid":false,"alpine":false,"bouldering":false,"ice":false,"mixed":false,"snow":false,"sport":false,"tr":false,"trad":true}}],"id":"6467aacce622317bdb3e0eea","metadata":{"lat":36.45462,"lng":-84.66365,"areaId":"fe59602b-19f0-51a2-b471-603979805d9d"}},{"areaName":"Southern Weight Loss Center","children":[],"climbs":[{"grades":{"font":null,"french":"5c","vscale":null,"yds":"5.9"},"id":"963ec784-ce1f-501e-b95e-3ee50cd22310","metadata":{"lat":36.4796,"lng":-84.66269},"name":"Sticks and Stones","safety":"UNSPECIFIED","type":{"aid":false,"alpine":false,"bouldering":false,"ice":false,"mixed":false,"snow":false,"sport":false,"tr":false,"trad":true}}],"id":"6467aacce622317bdb3e0eeb","metadata":{"lat":36.4796,"lng":-84.66269,"areaId":"77e2945d-22b2-5cc1-8736-5aee068a21f6"}},{"areaName":"Pine Creek","children":[],"climbs":[{"grades":{"font":null,"french":"6b\u002B","vscale":null,"yds":"5.10\u002B"},"id":"093b0b7e-5a94-5e73-a1c1-1139f5b66029","metadata":{"lat":36.4796,"lng":-84.6627},"name":"Rhino Load","safety":"PG","type":{"aid":false,"alpine":false,"bouldering":false,"ice":false,"mixed":false,"snow":false,"sport":false,"tr":false,"trad":true}},{"grades":{"font":null,"french":"6c","vscale":null,"yds":"5.11a"},"id":"92257d96-7237-5a2a-ba8a-8386f2f6494e","metadata":{"lat":36.4796,"lng":-84.6627},"name":"Captain Hook","safety":"PG","type":{"aid":true,"alpine":false,"bouldering":false,"ice":false,"mixed":false,"snow":false,"sport":false,"tr":false,"trad":true}},{"grades":{"font":null,"french":"7a","vscale":null,"yds":"5.11\u002B"},"id":"cb23850a-077c-5f97-b376-44945a549a33","metadata":{"lat":36.4796,"lng":-84.6627},"name":"Cave Route","safety":"R","type":{"aid":false,"alpine":false,"bouldering":false,"ice":false,"mixed":false,"snow":false,"sport":false,"tr":false,"trad":true}}],"id":"6467aacce622317bdb3e0eec","metadata":{"lat":36.4796,"lng":-84.6627,"areaId":"0dfa60b3-6f55-59e1-b7bc-bf17b81ced95"}},{"areaName":"O\u0026W Wall","children":[],"climbs":[{"grades":{"font":null,"french":"6b","vscale":null,"yds":"5.10"},"id":"633c231f-6cb2-54cc-ae0c-f2d53e910670","metadata":{"lat":36.45445,"lng":-84.6492},"name":"Vertigo","safety":"UNSPECIFIED","type":{"aid":true,"alpine":false,"bouldering":false,"ice":false,"mixed":false,"snow":false,"sport":false,"tr":false,"trad":true}},{"grades":{"font":null,"french":"5b","vscale":null,"yds":"5.8"},"id":"64ac6124-10ad-509c-8e6a-694779f24094","metadata":{"lat":36.45445,"lng":-84.6492},"name":"snake charmer","safety":"UNSPECIFIED","type":{"aid":false,"alpine":false,"bouldering":false,"ice":false,"mixed":false,"snow":false,"sport":false,"tr":false,"trad":true}},{"grades":{"font":null,"french":"5b","vscale":null,"yds":"5.8-"},"id":"69b6df8c-49fe-5204-a323-97b7bc748c6f","metadata":{"lat":36.45445,"lng":-84.6492},"name":"Original Route/Suicide Blonde","safety":"UNSPECIFIED","type":{"aid":false,"alpine":false,"bouldering":false,"ice":false,"mixed":false,"snow":false,"sport":false,"tr":false,"trad":true}},{"grades":{"font":null,"french":"7a\u002B","vscale":null,"yds":"5.12a"},"id":"8e6eea1e-f76c-57b6-ab47-bfec5ad186e6","metadata":{"lat":36.45445,"lng":-84.6492},"name":"Under the Big Top","safety":"PG","type":{"aid":false,"alpine":false,"bouldering":false,"ice":false,"mixed":false,"snow":false,"sport":false,"tr":false,"trad":true}},{"grades":{"font":null,"french":"6c\u002B","vscale":null,"yds":"5.11"},"id":"bb10b244-a092-5c58-a45f-7a985fbd23ab","metadata":{"lat":36.45445,"lng":-84.6492},"name":"Dog And Pony Show","safety":"PG","type":{"aid":false,"alpine":false,"bouldering":false,"ice":false,"mixed":false,"snow":false,"sport":false,"tr":false,"trad":true}},{"grades":{"font":null,"french":"6b","vscale":null,"yds":"5.10"},"id":"db6837c0-b1d5-58d9-95af-e7f091cb9936","metadata":{"lat":36.45445,"lng":-84.6492},"name":"Cheap Seats","safety":"PG","type":{"aid":false,"alpine":false,"bouldering":false,"ice":false,"mixed":false,"snow":false,"sport":false,"tr":false,"trad":true}}],"id":"6467aacce622317bdb3e0eed","metadata":{"lat":36.45445,"lng":-84.6492,"areaId":"ee8d5b84-522e-555d-b79e-d7783b54e388"}},{"areaName":"Honey Creek","children":[],"climbs":[{"grades":{"font":null,"french":"6c","vscale":null,"yds":"5.11b"},"id":"5e913aae-4250-5b51-89d8-7b8e03bf6d24","metadata":{"lat":36.43181,"lng":-84.64873},"name":"Occam\u0027s Razor","safety":"UNSPECIFIED","type":{"aid":false,"alpine":false,"bouldering":false,"ice":false,"mixed":false,"snow":false,"sport":true,"tr":false,"trad":false}},{"grades":{"font":null,"french":"7a\u002B","vscale":null,"yds":"5.12a"},"id":"a614e39c-ffd5-5861-9f29-f858da9e8921","metadata":{"lat":36.43181,"lng":-84.64873},"name":"All In A Day\u0027s Work","safety":"UNSPECIFIED","type":{"aid":false,"alpine":false,"bouldering":false,"ice":false,"mixed":false,"snow":false,"sport":true,"tr":false,"trad":false}},{"grades":{"font":null,"french":"6b\u002B","vscale":null,"yds":"5.10d"},"id":"cc14c822-bcbe-57ec-a2f2-694619c2498a","metadata":{"lat":36.43181,"lng":-84.64873},"name":"Maia\u0027s Smile","safety":"UNSPECIFIED","type":{"aid":false,"alpine":false,"bouldering":false,"ice":false,"mixed":false,"snow":false,"sport":true,"tr":false,"trad":false}}],"id":"6467aacce622317bdb3e0ef2","metadata":{"lat":36.43181,"lng":-84.64873,"areaId":"028989f1-abf6-5e8d-b9f6-b6b4b45b1a39"}},{"areaName":"Crack House, The","children":[],"climbs":[{"grades":{"font":null,"french":"5c","vscale":null,"yds":"5.9\u002B"},"id":"00ce683d-10c4-51a3-8524-f1913b112f56","metadata":{"lat":36.4796,"lng":-84.6627},"name":"Kacce\u0027s Route","safety":"UNSPECIFIED","type":{"aid":false,"alpine":false,"bouldering":false,"ice":false,"mixed":false,"snow":false,"sport":false,"tr":false,"trad":true}},{"grades":{"font":null,"french":"5c","vscale":null,"yds":"5.9\u002B"},"id":"0abf77cd-1c5c-5ee8-bcdd-be77426709ba","metadata":{"lat":36.4796,"lng":-84.6627},"name":"Next Corner","safety":"UNSPECIFIED","type":{"aid":false,"alpine":false,"bouldering":false,"ice":false,"mixed":false,"snow":false,"sport":false,"tr":false,"trad":true}},{"grades":{"font":null,"french":"6b\u002B","vscale":null,"yds":"5.10\u002B"},"id":"115fae38-4370-5d53-939e-bf1dee2e02a8","metadata":{"lat":36.4796,"lng":-84.6627},"name":"Sling Blade","safety":"PG","type":{"aid":false,"alpine":false,"bouldering":false,"ice":false,"mixed":false,"snow":false,"sport":false,"tr":false,"trad":true}},{"grades":{"font":null,"french":"6c\u002B","vscale":null,"yds":"5.11b/c"},"id":"214fe168-4f35-566d-a940-1d354ba9478e","metadata":{"lat":36.4796,"lng":-84.6627},"name":"Yeller\u0027 Feller\u0027","safety":"UNSPECIFIED","type":{"aid":false,"alpine":false,"bouldering":false,"ice":false,"mixed":false,"snow":false,"sport":true,"tr":false,"trad":true}},{"grades":{"font":null,"french":"7b\u002B","vscale":null,"yds":"5.12"},"id":"2b257567-f069-5f66-b10b-f7dbb1e63f96","metadata":{"lat":36.4796,"lng":-84.6627},"name":"Scary Jerry","safety":"UNSPECIFIED","type":{"aid":false,"alpine":false,"bouldering":false,"ice":false,"mixed":false,"snow":false,"sport":true,"tr":false,"trad":false}},{"grades":{"font":null,"french":"5b","vscale":null,"yds":"5.8"},"id":"3f0f897d-bba5-50ed-9481-b18d60dd8496","metadata":{"lat":36.4796,"lng":-84.6627},"name":"Classic Corner","safety":"UNSPECIFIED","type":{"aid":false,"alpine":false,"bouldering":false,"ice":false,"mixed":false,"snow":false,"sport":false,"tr":false,"trad":true}},{"grades":{"font":null,"french":"7a","vscale":null,"yds":"5.11\u002B"},"id":"4e81b2e1-022c-5db2-953b-a3d0391c1a11","metadata":{"lat":36.4796,"lng":-84.6627},"name":"Moral Dilemma","safety":"UNSPECIFIED","type":{"aid":false,"alpine":false,"bouldering":false,"ice":false,"mixed":false,"snow":false,"sport":true,"tr":false,"trad":false}},{"grades":{"font":null,"french":"6b","vscale":null,"yds":"5.10"},"id":"53819805-f733-51fc-ae02-8f4649c0d1b6","metadata":{"lat":36.4796,"lng":-84.6627},"name":"Medicine Man","safety":"UNSPECIFIED","type":{"aid":false,"alpine":false,"bouldering":false,"ice":false,"mixed":false,"snow":false,"sport":false,"tr":false,"trad":true}},{"grades":{"font":null,"french":"6a","vscale":null,"yds":"5.10a"},"id":"914a105d-da7b-5039-90ff-87362782de86","metadata":{"lat":36.4796,"lng":-84.6627},"name":"unnamed","safety":"UNSPECIFIED","type":{"aid":false,"alpine":false,"bouldering":false,"ice":false,"mixed":false,"snow":false,"sport":false,"tr":false,"trad":true}},{"grades":{"font":null,"french":"6c","vscale":null,"yds":"5.11b"},"id":"94eec0f2-3192-5ccb-9bae-c2ad7e7d04fe","metadata":{"lat":36.4796,"lng":-84.6627},"name":"Soulshine","safety":"UNSPECIFIED","type":{"aid":false,"alpine":false,"bouldering":false,"ice":false,"mixed":false,"snow":false,"sport":false,"tr":false,"trad":true}},{"grades":{"font":null,"french":"6c\u002B","vscale":null,"yds":"5.11"},"id":"b0b590b7-473d-5381-b3c0-36fc2b43308d","metadata":{"lat":36.4796,"lng":-84.6627},"name":"Five Fun","safety":"UNSPECIFIED","type":{"aid":false,"alpine":false,"bouldering":false,"ice":false,"mixed":false,"snow":false,"sport":true,"tr":false,"trad":false}},{"grades":{"font":null,"french":"5c","vscale":null,"yds":"5.9\u002B"},"id":"d671d5d5-82dd-58e7-ab8e-58fa27e4fd6c","metadata":{"lat":36.4796,"lng":-84.6627},"name":"The Nose","safety":"PG","type":{"aid":false,"alpine":false,"bouldering":false,"ice":false,"mixed":false,"snow":false,"sport":false,"tr":false,"trad":true}},{"grades":{"font":null,"french":"6c\u002B","vscale":null,"yds":"5.11b/c"},"id":"f34eef49-ad8a-5d7f-8237-c0f468607253","metadata":{"lat":36.4796,"lng":-84.6627},"name":"Honeycomb","safety":"UNSPECIFIED","type":{"aid":false,"alpine":false,"bouldering":false,"ice":false,"mixed":false,"snow":false,"sport":true,"tr":false,"trad":false}},{"grades":{"font":null,"french":"6c","vscale":null,"yds":"5.11-"},"id":"fb31efcc-905a-5eb6-9661-94cbb008f7c0","metadata":{"lat":36.4796,"lng":-84.6627},"name":"Green Elbow","safety":"UNSPECIFIED","type":{"aid":false,"alpine":false,"bouldering":false,"ice":false,"mixed":false,"snow":false,"sport":false,"tr":false,"trad":true}}],"id":"6467aacce622317bdb3e0ef3","metadata":{"lat":36.4796,"lng":-84.6627,"areaId":"4cc92718-7522-57ac-8ef2-5b7015d1f3fe"}},{"areaName":"Canoe Wall","children":[],"climbs":[{"grades":{"font":null,"french":"6a","vscale":null,"yds":"5.10a"},"id":"3b63d9c0-4866-5a23-8f87-be8301e8bf2c","metadata":{"lat":36.62716,"lng":-84.58005},"name":"Follow the White Rabbit, Dont Let Him Chase You","safety":"UNSPECIFIED","type":{"aid":false,"alpine":false,"bouldering":false,"ice":false,"mixed":false,"snow":false,"sport":false,"tr":false,"trad":true}},{"grades":{"font":null,"french":"6c","vscale":null,"yds":"5.11-"},"id":"46cbf07e-bf15-5687-a089-89fcffb0ed2d","metadata":{"lat":36.62716,"lng":-84.58005},"name":"Disco 69","safety":"UNSPECIFIED","type":{"aid":false,"alpine":false,"bouldering":false,"ice":false,"mixed":false,"snow":false,"sport":true,"tr":false,"trad":false}},{"grades":{"font":null,"french":"7a","vscale":null,"yds":"5.11\u002B"},"id":"825921c2-584c-58ed-b012-91d09c0b351b","metadata":{"lat":36.62716,"lng":-84.58005},"name":"Very 69","safety":"UNSPECIFIED","type":{"aid":false,"alpine":false,"bouldering":false,"ice":false,"mixed":false,"snow":false,"sport":true,"tr":false,"trad":false}}],"id":"6467aacce622317bdb3e0ef4","metadata":{"lat":36.62716,"lng":-84.58005,"areaId":"750a6c80-6ac7-573f-8c05-c37a08b69e85"}},{"areaName":"911 Wall","children":[],"climbs":[{"grades":{"font":null,"french":"5c","vscale":null,"yds":"5.9\u002B"},"id":"ec47427f-e8cf-5332-a685-ca238b0d74dd","metadata":{"lat":36.45445,"lng":-84.64524},"name":"911","safety":"R","type":{"aid":false,"alpine":false,"bouldering":false,"ice":false,"mixed":false,"snow":false,"sport":false,"tr":false,"trad":true}}],"id":"6467aacce622317bdb3e0ef5","metadata":{"lat":36.45445,"lng":-84.64524,"areaId":"02ea0556-4630-5d16-a526-fed08140ab2f"}},{"areaName":"No Business Creek","children":[{"areaName":"Tacket Creek","children":[],"climbs":[{"grades":{"font":null,"french":"6b\u002B","vscale":null,"yds":"5.10\u002B"},"id":"08f3593e-f913-53dc-9d6b-593ac521a97f","metadata":{"lat":36.59255,"lng":-84.68482},"name":"Getting Your Feet Wet","safety":"UNSPECIFIED","type":{"aid":false,"alpine":false,"bouldering":false,"ice":false,"mixed":false,"snow":false,"sport":false,"tr":false,"trad":true}},{"grades":{"font":null,"french":"5b","vscale":null,"yds":"5.8"},"id":"e16a1cb3-30bd-5199-b462-f441049d4f63","metadata":{"lat":36.59255,"lng":-84.68482},"name":"Having Terrible Troubles","safety":"UNSPECIFIED","type":{"aid":false,"alpine":false,"bouldering":false,"ice":false,"mixed":false,"snow":false,"sport":false,"tr":false,"trad":true}}],"id":"6467aacce622317bdb3e0eff","metadata":{"lat":36.59255,"lng":-84.68482,"areaId":"9818ddc4-b41c-59ac-9211-d6010e552342"}},{"areaName":"No Business Walls","children":[],"climbs":[{"grades":{"font":null,"french":"5b","vscale":null,"yds":"5.8\u002B"},"id":"c53f4e6b-e878-5fde-9e73-ed34546fa4b5","metadata":{"lat":36.5894,"lng":-84.67657},"name":"Slow Motion","safety":"UNSPECIFIED","type":{"aid":false,"alpine":false,"bouldering":false,"ice":false,"mixed":false,"snow":false,"sport":false,"tr":false,"trad":true}}],"id":"6467aacce622317bdb3e0f00","metadata":{"lat":36.5894,"lng":-84.67657,"areaId":"f73336fd-5835-5dbc-949e-3508de85bbb3"}},{"areaName":"No Business Butte","children":[],"climbs":[{"grades":{"font":null,"french":"6b","vscale":null,"yds":"5.10"},"id":"25f994ca-5be2-5489-9c9c-6513b39e3445","metadata":{"lat":36.58406,"lng":-84.66967},"name":"South Face","safety":"UNSPECIFIED","type":{"aid":false,"alpine":false,"bouldering":false,"ice":false,"mixed":false,"snow":false,"sport":false,"tr":false,"trad":true}},{"grades":{"font":null,"french":"6b\u002B","vscale":null,"yds":"5.10\u002B"},"id":"2e4ebc81-08b1-5cb8-b44b-f80d98aa4146","metadata":{"lat":36.58406,"lng":-84.66967},"name":"Smith \u0026 Wesson Oil","safety":"UNSPECIFIED","type":{"aid":false,"alpine":false,"bouldering":false,"ice":false,"mixed":false,"snow":false,"sport":false,"tr":false,"trad":true}}],"id":"6467aacce622317bdb3e0f01","metadata":{"lat":36.58406,"lng":-84.66967,"areaId":"46461f39-2ca7-59ef-bcbb-46b9b272c338"}},{"areaName":"Longfield Branch","children":[],"climbs":[{"grades":{"font":null,"french":"6b\u002B","vscale":null,"yds":"5.10\u002B"},"id":"3499582a-b5b1-52cb-8d0c-c2d5f5460eb0","metadata":{"lat":36.58334,"lng":-84.68229},"name":"Unknown","safety":"UNSPECIFIED","type":{"aid":false,"alpine":false,"bouldering":false,"ice":false,"mixed":false,"snow":false,"sport":false,"tr":false,"trad":true}},{"grades":{"font":null,"french":"5a","vscale":null,"yds":"5.7"},"id":"55e26836-f9a1-5d04-bab9-ba7b3fc36cec","metadata":{"lat":36.58334,"lng":-84.68229},"name":"Unknown","safety":"UNSPECIFIED","type":{"aid":false,"alpine":false,"bouldering":false,"ice":false,"mixed":false,"snow":false,"sport":false,"tr":false,"trad":true}},{"grades":{"font":null,"french":"5b","vscale":null,"yds":"5.8"},"id":"5c24b9ea-ee1d-5b5e-a49c-00611575035b","metadata":{"lat":36.58334,"lng":-84.68229},"name":"Mixed DNA","safety":"PG","type":{"aid":false,"alpine":false,"bouldering":false,"ice":false,"mixed":false,"snow":false,"sport":false,"tr":false,"trad":true}},{"grades":{"font":null,"french":"5a","vscale":null,"yds":"5.7\u002B"},"id":"87f2169a-8e4f-54df-ac4b-cfeeb8d05d1c","metadata":{"lat":36.58334,"lng":-84.68229},"name":"COVID did this","safety":"UNSPECIFIED","type":{"aid":false,"alpine":false,"bouldering":false,"ice":false,"mixed":false,"snow":false,"sport":false,"tr":false,"trad":true}},{"grades":{"font":null,"french":"6a","vscale":null,"yds":"5.10a"},"id":"8cc7ebc1-6fa5-5ace-ba3c-0226a3a543f3","metadata":{"lat":36.58334,"lng":-84.68229},"name":"Lockdown Chimney","safety":"PG","type":{"aid":false,"alpine":false,"bouldering":false,"ice":false,"mixed":false,"snow":false,"sport":false,"tr":false,"trad":true}},{"grades":{"font":null,"french":"5b","vscale":null,"yds":"5.8-"},"id":"c54a357e-7f8c-51d2-95d9-82c8939d0800","metadata":{"lat":36.58334,"lng":-84.68229},"name":"Does Your Mother Sew","safety":"PG","type":{"aid":false,"alpine":false,"bouldering":false,"ice":false,"mixed":false,"snow":false,"sport":false,"tr":false,"trad":true}},{"grades":{"font":null,"french":"5c","vscale":null,"yds":"5.9"},"id":"f3c23126-fa6e-5cd0-a038-3decee58dfee","metadata":{"lat":36.58334,"lng":-84.68229},"name":"Get Her To Sew This","safety":"UNSPECIFIED","type":{"aid":false,"alpine":false,"bouldering":false,"ice":false,"mixed":false,"snow":false,"sport":false,"tr":false,"trad":true}}],"id":"6467aacce622317bdb3e0f02","metadata":{"lat":36.58334,"lng":-84.68229,"areaId":"7241a702-b43c-5d41-a92d-983d4ca7d6e8"}},{"areaName":"Butte Walls, The","children":[],"climbs":[{"grades":{"font":null,"french":"5b","vscale":null,"yds":"5.8-"},"id":"298aa4d2-49e9-571f-bac4-e08c5db80930","metadata":{"lat":36.5824,"lng":-84.67302},"name":"Petite but vulgar","safety":"UNSPECIFIED","type":{"aid":false,"alpine":false,"bouldering":false,"ice":false,"mixed":false,"snow":false,"sport":false,"tr":false,"trad":true}},{"grades":{"font":null,"french":"5c","vscale":null,"yds":"5.9\u002B"},"id":"ca89b6ff-64cc-5b9e-9d52-07d65a0a846a","metadata":{"lat":36.5824,"lng":-84.67302},"name":"Because I Got High","safety":"PG","type":{"aid":false,"alpine":false,"bouldering":false,"ice":false,"mixed":false,"snow":false,"sport":false,"tr":false,"trad":true}},{"grades":{"font":null,"french":"5b","vscale":null,"yds":"5.8-"},"id":"dde7c9da-9b72-5180-a89a-536946075ea0","metadata":{"lat":36.5824,"lng":-84.67302},"name":"Ethics Violator","safety":"UNSPECIFIED","type":{"aid":false,"alpine":false,"bouldering":false,"ice":false,"mixed":false,"snow":false,"sport":false,"tr":false,"trad":true}},{"grades":{"font":null,"french":"6a","vscale":null,"yds":"5.10-"},"id":"f2d925c7-0b39-5cf5-a167-c3806a58b900","metadata":{"lat":36.5824,"lng":-84.67302},"name":"Don\u2019t Tread on Me","safety":"UNSPECIFIED","type":{"aid":false,"alpine":false,"bouldering":false,"ice":false,"mixed":false,"snow":false,"sport":false,"tr":false,"trad":true}}],"id":"6467aacce622317bdb3e0f14","metadata":{"lat":36.5824,"lng":-84.67302,"areaId":"6407f646-7a35-540d-b0fa-f4bd85728836"}}],"climbs":[],"id":"6467aacce622317bdb3e0efe","metadata":{"lat":36.586349999999996,"lng":-84.677274,"areaId":"46c68a1a-c78c-5570-84d7-0229f7af6d05"}},{"areaName":"Blue Heron","children":[{"areaName":"Upstream Routes","children":[],"climbs":[{"grades":{"font":null,"french":"5c","vscale":null,"yds":"5.9\u002B"},"id":"108ebb0c-c242-5919-b142-7ff4252a5b33","metadata":{"lat":36.6706,"lng":-84.54431},"name":"Slingblade","safety":"UNSPECIFIED","type":{"aid":false,"alpine":false,"bouldering":false,"ice":false,"mixed":false,"snow":false,"sport":false,"tr":false,"trad":true}},{"grades":{"font":null,"french":"6c","vscale":null,"yds":"5.11a"},"id":"16384314-4776-5195-b1d7-2079ab29eff2","metadata":{"lat":36.6706,"lng":-84.54431},"name":"Frosty The Lumberjack","safety":"UNSPECIFIED","type":{"aid":false,"alpine":false,"bouldering":false,"ice":false,"mixed":false,"snow":false,"sport":true,"tr":false,"trad":false}},{"grades":{"font":null,"french":"6b\u002B","vscale":null,"yds":"5.10\u002B"},"id":"4437d1d3-0d03-5717-8cd7-45d8b5950f82","metadata":{"lat":36.6706,"lng":-84.54431},"name":"Sabre Dance","safety":"UNSPECIFIED","type":{"aid":false,"alpine":false,"bouldering":false,"ice":false,"mixed":false,"snow":false,"sport":true,"tr":false,"trad":false}},{"grades":{"font":null,"french":"5b","vscale":null,"yds":"5.8"},"id":"4516f4fa-4052-5cfb-8f50-781456d15e5c","metadata":{"lat":36.6706,"lng":-84.54431},"name":"Shell Shock","safety":"UNSPECIFIED","type":{"aid":false,"alpine":false,"bouldering":false,"ice":false,"mixed":false,"snow":false,"sport":false,"tr":false,"trad":true}},{"grades":{"font":null,"french":"5c","vscale":null,"yds":"5.9"},"id":"4527704a-5f46-5f9c-9b2b-7e5069fce6dc","metadata":{"lat":36.6706,"lng":-84.54431},"name":"Bandersnach","safety":"UNSPECIFIED","type":{"aid":false,"alpine":false,"bouldering":false,"ice":false,"mixed":false,"snow":false,"sport":false,"tr":false,"trad":true}},{"grades":{"font":null,"french":"5b","vscale":null,"yds":"5.8"},"id":"8bc13b26-90ce-5210-9708-6625f5c87add","metadata":{"lat":36.6706,"lng":-84.54431},"name":"Bombs Away","safety":"UNSPECIFIED","type":{"aid":false,"alpine":false,"bouldering":false,"ice":false,"mixed":false,"snow":false,"sport":false,"tr":false,"trad":true}},{"grades":{"font":null,"french":"6b\u002B","vscale":null,"yds":"5.10d"},"id":"c0d25984-8673-5119-a220-f5797e5a7199","metadata":{"lat":36.6706,"lng":-84.54431},"name":"Insecurity Blanket","safety":"UNSPECIFIED","type":{"aid":false,"alpine":false,"bouldering":false,"ice":false,"mixed":false,"snow":false,"sport":false,"tr":false,"trad":true}},{"grades":{"font":null,"french":"7a","vscale":null,"yds":"5.11d"},"id":"c11ac771-5be6-50ac-86ca-9659c63d15e1","metadata":{"lat":36.6706,"lng":-84.54431},"name":"Morpheus","safety":"UNSPECIFIED","type":{"aid":false,"alpine":false,"bouldering":false,"ice":false,"mixed":false,"snow":false,"sport":true,"tr":false,"trad":false}},{"grades":{"font":null,"french":"6a","vscale":null,"yds":"5.10a"},"id":"da788410-91ff-549e-8581-fe5dada4268e","metadata":{"lat":36.6706,"lng":-84.54431},"name":"The Garden Weasel","safety":"R","type":{"aid":false,"alpine":false,"bouldering":false,"ice":false,"mixed":false,"snow":false,"sport":false,"tr":false,"trad":true}}],"id":"6467aacce622317bdb3e0f04","metadata":{"lat":36.6706,"lng":-84.54431,"areaId":"2026906f-b90e-5a4e-adc7-379ad3f878a7"}},{"areaName":"Springfield","children":[],"climbs":[{"grades":{"font":null,"french":"6c\u002B","vscale":null,"yds":"5.11c"},"id":"25bfc9a8-6a2b-5b9e-b10b-c18252218382","metadata":{"lat":36.67316,"lng":-84.54564},"name":"Bart at the Blackboard","safety":"UNSPECIFIED","type":{"aid":false,"alpine":false,"bouldering":false,"ice":false,"mixed":false,"snow":false,"sport":false,"tr":false,"trad":true}},{"grades":{"font":null,"french":"6a","vscale":null,"yds":"5.10a"},"id":"3414e0c5-5e38-5a28-bb4a-bcb96284943b","metadata":{"lat":36.67316,"lng":-84.54564},"name":"Song of the Sirens","safety":"UNSPECIFIED","type":{"aid":false,"alpine":false,"bouldering":false,"ice":false,"mixed":false,"snow":false,"sport":true,"tr":false,"trad":false}},{"grades":{"font":null,"french":"6a\u002B","vscale":null,"yds":"5.10b"},"id":"47de4be4-736b-58b0-9ad7-e492cff65d2e","metadata":{"lat":36.67316,"lng":-84.54564},"name":"Krusty The Clown","safety":"UNSPECIFIED","type":{"aid":false,"alpine":false,"bouldering":false,"ice":false,"mixed":false,"snow":false,"sport":true,"tr":false,"trad":false}},{"grades":{"font":null,"french":"6a","vscale":null,"yds":"5.10a"},"id":"62354107-b419-5e70-9cb8-53b51676775f","metadata":{"lat":36.67316,"lng":-84.54564},"name":"Charybdis","safety":"UNSPECIFIED","type":{"aid":false,"alpine":false,"bouldering":false,"ice":false,"mixed":false,"snow":false,"sport":true,"tr":false,"trad":false}},{"grades":{"font":null,"french":"6a\u002B","vscale":null,"yds":"5.10b"},"id":"6ba3a278-bf9d-5803-a572-0595f37eedd0","metadata":{"lat":36.67316,"lng":-84.54564},"name":"Scylla","safety":"UNSPECIFIED","type":{"aid":false,"alpine":false,"bouldering":false,"ice":false,"mixed":false,"snow":false,"sport":true,"tr":false,"trad":false}},{"grades":{"font":null,"french":"6c\u002B","vscale":null,"yds":"5.11c"},"id":"933cbcf9-24fc-5931-8f36-b6fd162491a5","metadata":{"lat":36.67316,"lng":-84.54564},"name":"Meltdown","safety":"UNSPECIFIED","type":{"aid":false,"alpine":false,"bouldering":false,"ice":false,"mixed":false,"snow":false,"sport":true,"tr":false,"trad":false}},{"grades":{"font":null,"french":"6c\u002B","vscale":null,"yds":"5.11c"},"id":"a23c3a91-5ea7-5b42-a15d-7e2872f6b2ca","metadata":{"lat":36.67316,"lng":-84.54564},"name":"Smithers Gets His Man","safety":"UNSPECIFIED","type":{"aid":false,"alpine":false,"bouldering":false,"ice":false,"mixed":false,"snow":false,"sport":true,"tr":false,"trad":false}},{"grades":{"font":null,"french":"6b","vscale":null,"yds":"5.10c"},"id":"ad391142-ba2d-5a69-ac63-f7e8ca562e6d","metadata":{"lat":36.67316,"lng":-84.54564},"name":"The Real Homer","safety":"UNSPECIFIED","type":{"aid":false,"alpine":false,"bouldering":false,"ice":false,"mixed":false,"snow":false,"sport":false,"tr":false,"trad":true}},{"grades":{"font":null,"french":"7a","vscale":null,"yds":"5.11\u002B"},"id":"c82083b2-c191-56d3-9d24-9d07c5169fcb","metadata":{"lat":36.67316,"lng":-84.54564},"name":"A Gathering of Shades","safety":"UNSPECIFIED","type":{"aid":false,"alpine":false,"bouldering":false,"ice":false,"mixed":false,"snow":false,"sport":true,"tr":false,"trad":false}},{"grades":{"font":null,"french":"6a\u002B","vscale":null,"yds":"5.10b"},"id":"d80069f7-29c7-5ce3-a7e4-06c4cbfa1481","metadata":{"lat":36.67316,"lng":-84.54564},"name":"Principal Skinner","safety":"UNSPECIFIED","type":{"aid":false,"alpine":false,"bouldering":false,"ice":false,"mixed":false,"snow":false,"sport":false,"tr":false,"trad":true}},{"grades":{"font":null,"french":"5a","vscale":null,"yds":"5.7"},"id":"e8542bf5-76d1-52ab-b050-47e10f3a6a29","metadata":{"lat":36.67316,"lng":-84.54564},"name":"Block Party","safety":"R","type":{"aid":false,"alpine":false,"bouldering":false,"ice":false,"mixed":false,"snow":false,"sport":false,"tr":false,"trad":true}},{"grades":{"font":null,"french":"6a\u002B","vscale":null,"yds":"5.10b"},"id":"ed6063fc-066c-597e-9ff5-bd351b4089af","metadata":{"lat":36.67316,"lng":-84.54564},"name":"Sideshow Bob","safety":"UNSPECIFIED","type":{"aid":false,"alpine":false,"bouldering":false,"ice":false,"mixed":false,"snow":false,"sport":false,"tr":false,"trad":true}}],"id":"6467aacce622317bdb3e0f05","metadata":{"lat":36.67316,"lng":-84.54564,"areaId":"f1ebef8a-bdbf-50ed-97b7-93d7b3f814d9"}},{"areaName":"Pantheon Amphitheatre","children":[],"climbs":[{"grades":{"font":null,"french":"6c","vscale":null,"yds":"5.11a"},"id":"1f656a8b-04a8-562a-bf77-201c38d6eada","metadata":{"lat":36.6706,"lng":-84.54431},"name":"Caesar\u0027s Stabbing","safety":"UNSPECIFIED","type":{"aid":false,"alpine":false,"bouldering":false,"ice":false,"mixed":false,"snow":false,"sport":true,"tr":false,"trad":false}},{"grades":{"font":null,"french":"4a","vscale":null,"yds":"5.4"},"id":"536b1032-dbb5-59a7-8754-b9301a85bbad","metadata":{"lat":36.6706,"lng":-84.54431},"name":"Bucket Boy","safety":"PG","type":{"aid":false,"alpine":false,"bouldering":false,"ice":false,"mixed":false,"snow":false,"sport":false,"tr":false,"trad":true}},{"grades":{"font":null,"french":"6b\u002B","vscale":null,"yds":"5.10d"},"id":"6ade8c2a-a780-5019-b274-4c5050eff287","metadata":{"lat":36.6706,"lng":-84.54431},"name":"Et Tu, Brute?","safety":"UNSPECIFIED","type":{"aid":false,"alpine":false,"bouldering":false,"ice":false,"mixed":false,"snow":false,"sport":true,"tr":false,"trad":false}},{"grades":{"font":null,"french":"7a\u002B","vscale":null,"yds":"5.12a"},"id":"d67f492e-75e4-57e5-9749-d35075736fa4","metadata":{"lat":36.6706,"lng":-84.54431},"name":"Dead Souls","safety":"UNSPECIFIED","type":{"aid":false,"alpine":false,"bouldering":false,"ice":false,"mixed":false,"snow":false,"sport":true,"tr":false,"trad":false}}],"id":"6467aacce622317bdb3e0f06","metadata":{"lat":36.6706,"lng":-84.54431,"areaId":"46d5211d-6cfb-5203-8d24-9c4315e1edcf"}},{"areaName":"Downstream Area","children":[],"climbs":[{"grades":{"font":null,"french":"6a","vscale":null,"yds":"5.10a"},"id":"12238873-8df6-5589-9bdd-7b72b16d8a26","metadata":{"lat":36.6706,"lng":-84.54431},"name":"Route du Jour","safety":"UNSPECIFIED","type":{"aid":false,"alpine":false,"bouldering":false,"ice":false,"mixed":false,"snow":false,"sport":true,"tr":false,"trad":false}},{"grades":{"font":null,"french":"6c","vscale":null,"yds":"5.11b"},"id":"3ec1c1b0-b697-563a-9a2e-2aea8901e32a","metadata":{"lat":36.6706,"lng":-84.54431},"name":"The Mirror of Llunett","safety":"UNSPECIFIED","type":{"aid":false,"alpine":false,"bouldering":false,"ice":false,"mixed":false,"snow":false,"sport":true,"tr":false,"trad":false}},{"grades":{"font":null,"french":"5c","vscale":null,"yds":"5.9\u002B"},"id":"5868864f-f219-54e6-8c28-3eb5f3922765","metadata":{"lat":36.6706,"lng":-84.54431},"name":"Hello Nasty","safety":"UNSPECIFIED","type":{"aid":false,"alpine":false,"bouldering":false,"ice":false,"mixed":false,"snow":false,"sport":false,"tr":false,"trad":true}},{"grades":{"font":null,"french":"6a","vscale":null,"yds":"5.10a"},"id":"62401737-0401-5c7e-9273-ae24d6bf2811","metadata":{"lat":36.6706,"lng":-84.54431},"name":"The Geothermal Jig","safety":"UNSPECIFIED","type":{"aid":false,"alpine":false,"bouldering":false,"ice":false,"mixed":false,"snow":false,"sport":false,"tr":false,"trad":true}},{"grades":{"font":null,"french":"5c","vscale":null,"yds":"5.9"},"id":"9149b9a3-0ab1-5ffc-892d-3bb4f660c644","metadata":{"lat":36.6706,"lng":-84.54431},"name":"Crack The Keg","safety":"UNSPECIFIED","type":{"aid":false,"alpine":false,"bouldering":false,"ice":false,"mixed":false,"snow":false,"sport":false,"tr":false,"trad":true}},{"grades":{"font":null,"french":"6a\u002B","vscale":null,"yds":"5.10b"},"id":"b7998082-f753-5cb8-8ee7-6565b8b33bf7","metadata":{"lat":36.6706,"lng":-84.54431},"name":"Wit\u0027s End","safety":"UNSPECIFIED","type":{"aid":false,"alpine":false,"bouldering":false,"ice":false,"mixed":false,"snow":false,"sport":true,"tr":false,"trad":false}},{"grades":{"font":null,"french":"6b\u002B","vscale":null,"yds":"5.10d"},"id":"cc617dbf-4b16-519c-ad11-c207818f08a9","metadata":{"lat":36.6706,"lng":-84.54431},"name":"Winter Solstice","safety":"UNSPECIFIED","type":{"aid":false,"alpine":false,"bouldering":false,"ice":false,"mixed":false,"snow":false,"sport":true,"tr":false,"trad":false}},{"grades":{"font":null,"french":"5b","vscale":null,"yds":"5.8"},"id":"d440c592-735e-5811-a97c-b42a51ee9a58","metadata":{"lat":36.6706,"lng":-84.54431},"name":"Zack Be Nimble","safety":"UNSPECIFIED","type":{"aid":false,"alpine":false,"bouldering":false,"ice":false,"mixed":false,"snow":false,"sport":false,"tr":false,"trad":true}},{"grades":{"font":null,"french":"5b","vscale":null,"yds":"5.8"},"id":"d727809c-4aef-5d45-b0f9-8f2b10464b3f","metadata":{"lat":36.6706,"lng":-84.54431},"name":"No One To Hear You Screem","safety":"UNSPECIFIED","type":{"aid":false,"alpine":false,"bouldering":false,"ice":false,"mixed":false,"snow":false,"sport":false,"tr":false,"trad":true}},{"grades":{"font":null,"french":"6c\u002B","vscale":null,"yds":"5.11c"},"id":"df1f93e3-8a64-5816-bb82-d1bbc69eadb9","metadata":{"lat":36.6706,"lng":-84.54431},"name":"Ecliptic","safety":"UNSPECIFIED","type":{"aid":false,"alpine":false,"bouldering":false,"ice":false,"mixed":false,"snow":false,"sport":true,"tr":false,"trad":false}}],"id":"6467aacce622317bdb3e0f07","metadata":{"lat":36.6706,"lng":-84.54431,"areaId":"00d2665c-a398-5550-9c68-3757ba5f96a5"}},{"areaName":"Carolina Training Wall","children":[],"climbs":[{"grades":{"font":null,"french":"5a","vscale":null,"yds":"5.7"},"id":"20a830aa-1fc4-536b-b9a5-ad1a5aea705f","metadata":{"lat":36.6706,"lng":-84.54431},"name":"Puddin\u0027 Jam","safety":"UNSPECIFIED","type":{"aid":false,"alpine":false,"bouldering":false,"ice":false,"mixed":false,"snow":false,"sport":false,"tr":false,"trad":true}},{"grades":{"font":null,"french":"5c","vscale":null,"yds":"5.9\u002B"},"id":"271a129d-6da4-5b38-85f6-02d50478daa7","metadata":{"lat":36.6706,"lng":-84.54431},"name":"Campobello Beauty","safety":"UNSPECIFIED","type":{"aid":false,"alpine":false,"bouldering":false,"ice":false,"mixed":false,"snow":false,"sport":true,"tr":false,"trad":false}},{"grades":{"font":null,"french":"6b\u002B","vscale":null,"yds":"5.10d"},"id":"47e019a2-f59f-592c-975b-920230e29e25","metadata":{"lat":36.6706,"lng":-84.54431},"name":"Murphy to Manteo","safety":"UNSPECIFIED","type":{"aid":false,"alpine":false,"bouldering":false,"ice":false,"mixed":false,"snow":false,"sport":true,"tr":false,"trad":false}},{"grades":{"font":null,"french":"6b","vscale":null,"yds":"5.10"},"id":"c0173c48-b144-56ea-b7ef-945153363d37","metadata":{"lat":36.6706,"lng":-84.54431},"name":"Carolina Club","safety":"UNSPECIFIED","type":{"aid":false,"alpine":false,"bouldering":false,"ice":false,"mixed":false,"snow":false,"sport":true,"tr":false,"trad":false}}],"id":"6467aacce622317bdb3e0f13","metadata":{"lat":36.6706,"lng":-84.54431,"areaId":"505fcf4b-d555-5bc1-99dc-0c38405d1ef6"}}],"climbs":[],"id":"6467aacce622317bdb3e0f03","metadata":{"lat":36.67111200000001,"lng":-84.54457599999999,"areaId":"a45ee6c3-851c-5f69-868b-c8cbe05175ad"}}],"climbs":[],"id":"6467aacce622317bdb3e0e9d","metadata":{"lat":36.512063818181815,"lng":-84.64011636363637,"areaId":"ccfd18f0-c6d9-5f89-aeb5-3c2030a8eb89"}},{"areaName":"Big Soddy Gorge","children":[{"areaName":"Visor Right","children":[],"climbs":[{"grades":{"font":null,"french":"6b","vscale":null,"yds":"5.10c"},"id":"3257fb51-0792-5cf4-ada3-4ff62b00f4f6","metadata":{"lat":35.30034,"lng":-85.1976},"name":"Spirit in the Sky","safety":"UNSPECIFIED","type":{"aid":false,"alpine":false,"bouldering":false,"ice":false,"mixed":false,"snow":false,"sport":true,"tr":false,"trad":false}}],"id":"6467aacce622317bdb3e0ea0","metadata":{"lat":35.30034,"lng":-85.1976,"areaId":"1646acca-0e1b-5afc-a7d4-18f65925eceb"}},{"areaName":"Visor Left","children":[],"climbs":[{"grades":{"font":null,"french":"6a","vscale":null,"yds":"5.10a"},"id":"7f028bf7-a30c-5593-afb1-f847a1afa960","metadata":{"lat":35.30037,"lng":-85.19788},"name":"Climber\u0027s Cough","safety":"UNSPECIFIED","type":{"aid":false,"alpine":false,"bouldering":false,"ice":false,"mixed":false,"snow":false,"sport":true,"tr":false,"trad":false}}],"id":"6467aacce622317bdb3e0ea1","metadata":{"lat":35.30037,"lng":-85.19788,"areaId":"62ba4098-b9ce-5de8-b233-80a5a4487326"}},{"areaName":"Sirens, The","children":[],"climbs":[{"grades":{"font":null,"french":"6a","vscale":null,"yds":"5.10-"},"id":"14c44a7e-7460-5d22-adb0-ad15931cda21","metadata":{"lat":35.29924,"lng":-85.19049},"name":"Siren Left","safety":"UNSPECIFIED","type":{"aid":false,"alpine":false,"bouldering":false,"ice":false,"mixed":false,"snow":false,"sport":false,"tr":false,"trad":true}},{"grades":{"font":null,"french":"6a","vscale":null,"yds":"5.10-"},"id":"ab44c33c-25de-5b74-8af6-5bfa08810bf2","metadata":{"lat":35.29924,"lng":-85.19049},"name":"Siren Right","safety":"UNSPECIFIED","type":{"aid":false,"alpine":false,"bouldering":false,"ice":false,"mixed":false,"snow":false,"sport":false,"tr":false,"trad":true}}],"id":"6467aacce622317bdb3e0ea2","metadata":{"lat":35.29924,"lng":-85.19049,"areaId":"cdbd4db3-51f8-5f80-bd00-5b0f3a298a79"}},{"areaName":"Good Samaritan Buttress","children":[],"climbs":[{"grades":{"font":null,"french":"7a","vscale":null,"yds":"5.11\u002B"},"id":"2dbdb612-41a6-5ef1-a220-558b8813b15e","metadata":{"lat":35.30033,"lng":-85.19775},"name":"Gospel of Luke","safety":"UNSPECIFIED","type":{"aid":false,"alpine":false,"bouldering":false,"ice":false,"mixed":false,"snow":false,"sport":false,"tr":false,"trad":true}},{"grades":{"font":null,"french":"6c","vscale":null,"yds":"5.11b"},"id":"2f36f1f5-3ffe-5c43-911c-0224e46baa7e","metadata":{"lat":35.30033,"lng":-85.19775},"name":"The Bounty","safety":"UNSPECIFIED","type":{"aid":false,"alpine":false,"bouldering":false,"ice":false,"mixed":false,"snow":false,"sport":true,"tr":false,"trad":false}},{"grades":{"font":null,"french":"6c","vscale":null,"yds":"5.11-"},"id":"4166bb81-f2cb-584f-8a45-9cedca29679c","metadata":{"lat":35.30033,"lng":-85.19775},"name":"Trailside Parable","safety":"UNSPECIFIED","type":{"aid":false,"alpine":false,"bouldering":false,"ice":false,"mixed":false,"snow":false,"sport":false,"tr":false,"trad":true}},{"grades":{"font":null,"french":"6b","vscale":null,"yds":"5.10"},"id":"622e03d7-df0b-50fc-b99f-6c12b0494db7","metadata":{"lat":35.30033,"lng":-85.19775},"name":"The Good Samaritan","safety":"UNSPECIFIED","type":{"aid":false,"alpine":false,"bouldering":false,"ice":false,"mixed":false,"snow":false,"sport":false,"tr":false,"trad":true}},{"grades":{"font":null,"french":"6c","vscale":null,"yds":"5.11-"},"id":"d4581661-007a-5688-90ef-0fe0c5b2c535","metadata":{"lat":35.30033,"lng":-85.19775},"name":"Direct Samaritan","safety":"UNSPECIFIED","type":{"aid":false,"alpine":false,"bouldering":false,"ice":false,"mixed":false,"snow":false,"sport":false,"tr":false,"trad":true}},{"grades":{"font":null,"french":"6b","vscale":null,"yds":"5.10c"},"id":"d84cfa71-aba2-56b6-b560-06fd10cd8a2d","metadata":{"lat":35.30033,"lng":-85.19775},"name":"Dodging Bullets","safety":"UNSPECIFIED","type":{"aid":false,"alpine":false,"bouldering":false,"ice":false,"mixed":false,"snow":false,"sport":true,"tr":false,"trad":false}}],"id":"6467aacce622317bdb3e0ee3","metadata":{"lat":35.30033,"lng":-85.19775,"areaId":"b9a9ddd3-2d1d-563c-86dd-244f9e7b0468"}},{"areaName":"Double Buttress","children":[],"climbs":[{"grades":{"font":null,"french":"6a\u002B","vscale":null,"yds":"5.10b"},"id":"a276289c-2dc0-587a-8da7-fd59e9e94b94","metadata":{"lat":35.30044,"lng":-85.19716},"name":"Blight","safety":"UNSPECIFIED","type":{"aid":false,"alpine":false,"bouldering":false,"ice":false,"mixed":false,"snow":false,"sport":true,"tr":false,"trad":false}}],"id":"6467aacce622317bdb3e0ee4","metadata":{"lat":35.30044,"lng":-85.19716,"areaId":"a8591bb6-8257-5b1b-873b-4c63a1bc19dd"}},{"areaName":"Departure 29","children":[],"climbs":[{"grades":{"font":null,"french":"6b","vscale":null,"yds":"5.10"},"id":"9a9b6322-f6c7-5426-b92a-eb1c047cb10e","metadata":{"lat":35.30012,"lng":-85.18848},"name":"Born Slippy","safety":"UNSPECIFIED","type":{"aid":false,"alpine":false,"bouldering":false,"ice":false,"mixed":false,"snow":false,"sport":false,"tr":false,"trad":true}},{"grades":{"font":null,"french":"5b","vscale":null,"yds":"5.8\u002B"},"id":"9b89c4f4-833c-5ab9-8a25-c97a2106dd96","metadata":{"lat":35.30012,"lng":-85.18848},"name":"Gift From Nature","safety":"UNSPECIFIED","type":{"aid":false,"alpine":false,"bouldering":false,"ice":false,"mixed":false,"snow":false,"sport":false,"tr":false,"trad":true}},{"grades":{"font":null,"french":"7a\u002B","vscale":null,"yds":"5.12-"},"id":"b3979477-8872-51ec-9196-ac7c0768fd54","metadata":{"lat":35.30012,"lng":-85.18848},"name":"Jector the Golden Loaf","safety":"UNSPECIFIED","type":{"aid":false,"alpine":false,"bouldering":false,"ice":false,"mixed":false,"snow":false,"sport":false,"tr":false,"trad":true}},{"grades":{"font":null,"french":"6b\u002B","vscale":null,"yds":"5.10\u002B"},"id":"d5c58ddd-2cb7-5356-9ca2-3ed2cc7312df","metadata":{"lat":35.30012,"lng":-85.18848},"name":"Born Grippy","safety":"UNSPECIFIED","type":{"aid":false,"alpine":false,"bouldering":false,"ice":false,"mixed":false,"snow":false,"sport":false,"tr":false,"trad":true}},{"grades":{"font":null,"french":"7a","vscale":null,"yds":"5.11\u002B"},"id":"f84e7bc6-4cc8-5e71-b6fb-93179930dfb3","metadata":{"lat":35.30012,"lng":-85.18848},"name":"Departure 29","safety":"UNSPECIFIED","type":{"aid":false,"alpine":false,"bouldering":false,"ice":false,"mixed":false,"snow":false,"sport":false,"tr":false,"trad":true}}],"id":"6467aacce622317bdb3e0ee5","metadata":{"lat":35.30012,"lng":-85.18848,"areaId":"e9c76526-417d-5a6e-843e-5b7b6add5bca"}},{"areaName":"Conspiracy Buttress","children":[],"climbs":[{"grades":{"font":null,"french":"7a","vscale":null,"yds":"5.11d"},"id":"03c36e70-1e46-54af-9c09-fafa2f10253a","metadata":{"lat":35.30096,"lng":-85.19864},"name":"Man on the Moon","safety":"UNSPECIFIED","type":{"aid":false,"alpine":false,"bouldering":false,"ice":false,"mixed":false,"snow":false,"sport":true,"tr":false,"trad":false}},